

<kml xmlns="http://earth.google.com/kml/2.0"><Document><name>AW Rivers</name>	<Style id="style_">
		<IconStyle id="AWicon">
			<color>ff9c9c9c</color>
			<scale>0.6</scale>
			<Icon>
				<href>http://www.americanwhitewater.org//resources/images/maps/unknown.png</href>
			</Icon>
		</IconStyle>
		<LabelStyle>
			<color>ff9c9c9c</color>
		</LabelStyle>
	</Style>	<Style id="style_low">
		<IconStyle id="AWiconlow">
			<color>ff7fa7ff</color>
			<scale>0.6</scale>
			<Icon>
				<href>http://www.americanwhitewater.org//resources/images/maps/low.png</href>
			</Icon>
		</IconStyle>
		<LabelStyle>
			<color>ff7fa7ff</color>
		</LabelStyle>
	</Style>	<Style id="style_med">
		<IconStyle id="AWiconmed">
			<color>ff00ff55</color>
			<scale>0.6</scale>
			<Icon>
				<href>http://www.americanwhitewater.org//resources/images/maps/running.png</href>
			</Icon>
		</IconStyle>
		<LabelStyle>
			<color>ff00ff55</color>
		</LabelStyle>
	</Style>	<Style id="style_high">
		<IconStyle id="AWiconhigh">
			<color>ffffc500</color>
			<scale>0.6</scale>
			<Icon>
				<href>http://www.americanwhitewater.org//resources/images/maps/high.png</href>
			</Icon>
		</IconStyle>
		<LabelStyle>
			<color>ffffc500</color>
		</LabelStyle>
	</Style>	
	<Placemark>
         <name>II-III: Battle Creek</name>
         <description><![CDATA[<img src="http://www.americanwhitewater.org//logo/AW_logo-Vert3Color_xsmall.gif"> <br> <A HREF="http://www.americanwhitewater.org//content/River/detail/id/514/">AW Page for this reach</A>]]></description>
         <styleUrl>#style_</styleUrl>
         <Point>
           <coordinates>-116.4,42.6946,0</coordinates>
         </Point>
       </Placemark>	
	<Placemark>
         <name>II-III: Bear Valley Creek</name>
         <description><![CDATA[<img src="http://www.americanwhitewater.org//logo/AW_logo-Vert3Color_xsmall.gif"> <br> <A HREF="http://www.americanwhitewater.org//content/River/detail/id/516/">AW Page for this reach</A>]]></description>
         <styleUrl>#style_</styleUrl>
         <Point>
           <coordinates>-115.291,44.4311,0</coordinates>
         </Point>
       </Placemark>	
	<Placemark>
         <name>IV(V): Bear</name>
         <description><![CDATA[<img src="http://www.americanwhitewater.org//logo/AW_logo-Vert3Color_xsmall.gif"> <br> <A HREF="http://www.americanwhitewater.org//content/River/detail/id/515/">AW Page for this reach</A>]]></description>
         <styleUrl>#style_</styleUrl>
         <Point>
           <coordinates>-111.729,42.5857,0</coordinates>
         </Point>
       </Placemark>	
	<Placemark>
         <name>I: Bear</name>
         <description><![CDATA[<img src="http://www.americanwhitewater.org//logo/AW_logo-Vert3Color_xsmall.gif"> <br> <A HREF="http://www.americanwhitewater.org//content/River/detail/id/5125/">AW Page for this reach</A>]]></description>
         <styleUrl>#style_</styleUrl>
         <Point>
           <coordinates>-111.796,42.5319,0</coordinates>
         </Point>
       </Placemark>	
	<Placemark>
         <name>I-II: Bear</name>
         <description><![CDATA[<img src="http://www.americanwhitewater.org//logo/AW_logo-Vert3Color_xsmall.gif"> <br> <A HREF="http://www.americanwhitewater.org//content/River/detail/id/1832/">AW Page for this reach</A>]]></description>
         <styleUrl>#style_med</styleUrl>
         <Point>
           <coordinates>-111.75,42.2677,0</coordinates>
         </Point>
       </Placemark>	
	<Placemark>
         <name>IV-V: Big Bear</name>
         <description><![CDATA[<img src="http://www.americanwhitewater.org//logo/AW_logo-Vert3Color_xsmall.gif"> <br> <A HREF="http://www.americanwhitewater.org//content/River/detail/id/517/">AW Page for this reach</A>]]></description>
         <styleUrl>#style_low</styleUrl>
         <Point>
           <coordinates>-116.597,46.7831,0</coordinates>
         </Point>
       </Placemark>	
	<Placemark>
         <name>III-IV: Big Creek (Tributary of Middle Fork Salmon River)</name>
         <description><![CDATA[<img src="http://www.americanwhitewater.org//logo/AW_logo-Vert3Color_xsmall.gif"> <br> <A HREF="http://www.americanwhitewater.org//content/River/detail/id/518/">AW Page for this reach</A>]]></description>
         <styleUrl>#style_</styleUrl>
         <Point>
           <coordinates>-115.32,45.1306,0</coordinates>
         </Point>
       </Placemark>	
	<Placemark>
         <name>II-III: Big Lost, E. Fork</name>
         <description><![CDATA[<img src="http://www.americanwhitewater.org//logo/AW_logo-Vert3Color_xsmall.gif"> <br> <A HREF="http://www.americanwhitewater.org//content/River/detail/id/519/">AW Page for this reach</A>]]></description>
         <styleUrl>#style_</styleUrl>
         <Point>
           <coordinates>-113.827,43.8024,0</coordinates>
         </Point>
       </Placemark>	
	<Placemark>
         <name>V: Big Sand Creek</name>
         <description><![CDATA[<img src="http://www.americanwhitewater.org//logo/AW_logo-Vert3Color_xsmall.gif"> <br> <A HREF="http://www.americanwhitewater.org//content/River/detail/id/520/">AW Page for this reach</A>]]></description>
         <styleUrl>#style_</styleUrl>
         <Point>
           <coordinates>-114.584,46.39,0</coordinates>
         </Point>
       </Placemark>	
	<Placemark>
         <name>III-IV: Bitch Creek</name>
         <description><![CDATA[<img src="http://www.americanwhitewater.org//logo/AW_logo-Vert3Color_xsmall.gif"> <br> <A HREF="http://www.americanwhitewater.org//content/River/detail/id/525/">AW Page for this reach</A>]]></description>
         <styleUrl>#style_</styleUrl>
         <Point>
           <coordinates>-110.983,43.9794,0</coordinates>
         </Point>
       </Placemark>	
	<Placemark>
         <name>IV-V: Bitch Creek</name>
         <description><![CDATA[<img src="http://www.americanwhitewater.org//logo/AW_logo-Vert3Color_xsmall.gif"> <br> <A HREF="http://www.americanwhitewater.org//content/River/detail/id/524/">AW Page for this reach</A>]]></description>
         <styleUrl>#style_low</styleUrl>
         <Point>
           <coordinates>-111.18,43.9406,0</coordinates>
         </Point>
       </Placemark>	
	<Placemark>
         <name>II: Blackfoot</name>
         <description><![CDATA[<img src="http://www.americanwhitewater.org//logo/AW_logo-Vert3Color_xsmall.gif"> <br> <A HREF="http://www.americanwhitewater.org//content/River/detail/id/526/">AW Page for this reach</A>]]></description>
         <styleUrl>#style_</styleUrl>
         <Point>
           <coordinates>-111.73,43.0012,0</coordinates>
         </Point>
       </Placemark>	
	<Placemark>
         <name>II: Blackfoot</name>
         <description><![CDATA[<img src="http://www.americanwhitewater.org//logo/AW_logo-Vert3Color_xsmall.gif"> <br> <A HREF="http://www.americanwhitewater.org//content/River/detail/id/527/">AW Page for this reach</A>]]></description>
         <styleUrl>#style_</styleUrl>
         <Point>
           <coordinates>-111.85,43.035,0</coordinates>
         </Point>
       </Placemark>	
	<Placemark>
         <name>IV-V: Blackfoot</name>
         <description><![CDATA[<img src="http://www.americanwhitewater.org//logo/AW_logo-Vert3Color_xsmall.gif"> <br> <A HREF="http://www.americanwhitewater.org//content/River/detail/id/528/">AW Page for this reach</A>]]></description>
         <styleUrl>#style_low</styleUrl>
         <Point>
           <coordinates>-111.911,43.1297,0</coordinates>
         </Point>
       </Placemark>	
	<Placemark>
         <name>III-IV: Boise, N. Fork</name>
         <description><![CDATA[<img src="http://www.americanwhitewater.org//logo/AW_logo-Vert3Color_xsmall.gif"> <br> <A HREF="http://www.americanwhitewater.org//content/River/detail/id/530/">AW Page for this reach</A>]]></description>
         <styleUrl>#style_med</styleUrl>
         <Point>
           <coordinates>-115.579,43.7939,0</coordinates>
         </Point>
       </Placemark>	
	<Placemark>
         <name>I-II(III): Boise, S. Fork</name>
         <description><![CDATA[<img src="http://www.americanwhitewater.org//logo/AW_logo-Vert3Color_xsmall.gif"> <br> <A HREF="http://www.americanwhitewater.org//content/River/detail/id/532/">AW Page for this reach</A>]]></description>
         <styleUrl>#style_low</styleUrl>
         <Point>
           <coordinates>-115.454,43.3589,0</coordinates>
         </Point>
       </Placemark>	
	<Placemark>
         <name>III-IV: Boise, S. Fork</name>
         <description><![CDATA[<img src="http://www.americanwhitewater.org//logo/AW_logo-Vert3Color_xsmall.gif"> <br> <A HREF="http://www.americanwhitewater.org//content/River/detail/id/531/">AW Page for this reach</A>]]></description>
         <styleUrl>#style_low</styleUrl>
         <Point>
           <coordinates>-115.557,43.4,0</coordinates>
         </Point>
       </Placemark>	
	<Placemark>
         <name>II: Boise</name>
         <description><![CDATA[<img src="http://www.americanwhitewater.org//logo/AW_logo-Vert3Color_xsmall.gif"> <br> <A HREF="http://www.americanwhitewater.org//content/River/detail/id/3090/">AW Page for this reach</A>]]></description>
         <styleUrl>#style_med</styleUrl>
         <Point>
           <coordinates>-115.642,43.7081,0</coordinates>
         </Point>
       </Placemark>	
	<Placemark>
         <name>I-III: Boise</name>
         <description><![CDATA[<img src="http://www.americanwhitewater.org//logo/AW_logo-Vert3Color_xsmall.gif"> <br> <A HREF="http://www.americanwhitewater.org//content/River/detail/id/529/">AW Page for this reach</A>]]></description>
         <styleUrl>#style_med</styleUrl>
         <Point>
           <coordinates>-115.623,43.7162,0</coordinates>
         </Point>
       </Placemark>	
	<Placemark>
         <name>IV-V: Boulder Creek</name>
         <description><![CDATA[<img src="http://www.americanwhitewater.org//logo/AW_logo-Vert3Color_xsmall.gif"> <br> <A HREF="http://www.americanwhitewater.org//content/River/detail/id/10359/">AW Page for this reach</A>]]></description>
         <styleUrl>#style_high</styleUrl>
         <Point>
           <coordinates>-116.147,48.5867,0</coordinates>
         </Point>
       </Placemark>	
	<Placemark>
         <name>V: Boundary Creek</name>
         <description><![CDATA[<img src="http://www.americanwhitewater.org//logo/AW_logo-Vert3Color_xsmall.gif"> <br> <A HREF="http://www.americanwhitewater.org//content/River/detail/id/421/">AW Page for this reach</A>]]></description>
         <styleUrl>#style_med</styleUrl>
         <Point>
           <coordinates>-116.7,48.9996,0</coordinates>
         </Point>
       </Placemark>	
	<Placemark>
         <name>IV-V: Bruneau, E. Fork</name>
         <description><![CDATA[<img src="http://www.americanwhitewater.org//logo/AW_logo-Vert3Color_xsmall.gif"> <br> <A HREF="http://www.americanwhitewater.org//content/River/detail/id/534/">AW Page for this reach</A>]]></description>
         <styleUrl>#style_</styleUrl>
         <Point>
           <coordinates>-115.518,42.5578,0</coordinates>
         </Point>
       </Placemark>	
	<Placemark>
         <name>IV-V: Bruneau, W. Fork</name>
         <description><![CDATA[<img src="http://www.americanwhitewater.org//logo/AW_logo-Vert3Color_xsmall.gif"> <br> <A HREF="http://www.americanwhitewater.org//content/River/detail/id/535/">AW Page for this reach</A>]]></description>
         <styleUrl>#style_low</styleUrl>
         <Point>
           <coordinates>-115.686,41.95,0</coordinates>
         </Point>
       </Placemark>	
	<Placemark>
         <name>II-IV: Bruneau</name>
         <description><![CDATA[<img src="http://www.americanwhitewater.org//logo/AW_logo-Vert3Color_xsmall.gif"> <br> <A HREF="http://www.americanwhitewater.org//content/River/detail/id/533/">AW Page for this reach</A>]]></description>
         <styleUrl>#style_low</styleUrl>
         <Point>
           <coordinates>-115.645,42.3371,0</coordinates>
         </Point>
       </Placemark>	
	<Placemark>
         <name>II-IV(V): Brushy Fork (Lochsa trib)</name>
         <description><![CDATA[<img src="http://www.americanwhitewater.org//logo/AW_logo-Vert3Color_xsmall.gif"> <br> <A HREF="http://www.americanwhitewater.org//content/River/detail/id/536/">AW Page for this reach</A>]]></description>
         <styleUrl>#style_</styleUrl>
         <Point>
           <coordinates>-114.458,46.6183,0</coordinates>
         </Point>
       </Placemark>	
	<Placemark>
         <name>V: Camas Creek (M.F.Salmon trib)</name>
         <description><![CDATA[<img src="http://www.americanwhitewater.org//logo/AW_logo-Vert3Color_xsmall.gif"> <br> <A HREF="http://www.americanwhitewater.org//content/River/detail/id/537/">AW Page for this reach</A>]]></description>
         <styleUrl>#style_</styleUrl>
         <Point>
           <coordinates>-114.499,44.8275,0</coordinates>
         </Point>
       </Placemark>	
	<Placemark>
         <name>I-III: Camas Creek (Snake trib)</name>
         <description><![CDATA[<img src="http://www.americanwhitewater.org//logo/AW_logo-Vert3Color_xsmall.gif"> <br> <A HREF="http://www.americanwhitewater.org//content/River/detail/id/538/">AW Page for this reach</A>]]></description>
         <styleUrl>#style_</styleUrl>
         <Point>
           <coordinates>-114.589,43.3344,0</coordinates>
         </Point>
       </Placemark>	
	<Placemark>
         <name>II-IV(V): Clearwater, Little North Fork</name>
         <description><![CDATA[<img src="http://www.americanwhitewater.org//logo/AW_logo-Vert3Color_xsmall.gif"> <br> <A HREF="http://www.americanwhitewater.org//content/River/detail/id/3248/">AW Page for this reach</A>]]></description>
         <styleUrl>#style_med</styleUrl>
         <Point>
           <coordinates>-115.848,47.0655,0</coordinates>
         </Point>
       </Placemark>	
	<Placemark>
         <name>I-II: Clearwater, Middle Fork</name>
         <description><![CDATA[<img src="http://www.americanwhitewater.org//logo/AW_logo-Vert3Color_xsmall.gif"> <br> <A HREF="http://www.americanwhitewater.org//content/River/detail/id/541/">AW Page for this reach</A>]]></description>
         <styleUrl>#style_</styleUrl>
         <Point>
           <coordinates>-115.63,46.1411,0</coordinates>
         </Point>
       </Placemark>	
	<Placemark>
         <name>III-V: Clearwater, N. Fork</name>
         <description><![CDATA[<img src="http://www.americanwhitewater.org//logo/AW_logo-Vert3Color_xsmall.gif"> <br> <A HREF="http://www.americanwhitewater.org//content/River/detail/id/542/">AW Page for this reach</A>]]></description>
         <styleUrl>#style_med</styleUrl>
         <Point>
           <coordinates>-115.119,46.9086,0</coordinates>
         </Point>
       </Placemark>	
	<Placemark>
         <name>III-V: Clearwater, N. Fork</name>
         <description><![CDATA[<img src="http://www.americanwhitewater.org//logo/AW_logo-Vert3Color_xsmall.gif"> <br> <A HREF="http://www.americanwhitewater.org//content/River/detail/id/543/">AW Page for this reach</A>]]></description>
         <styleUrl>#style_med</styleUrl>
         <Point>
           <coordinates>-115.488,46.6322,0</coordinates>
         </Point>
       </Placemark>	
	<Placemark>
         <name>IV: Clearwater, S. Fork</name>
         <description><![CDATA[<img src="http://www.americanwhitewater.org//logo/AW_logo-Vert3Color_xsmall.gif"> <br> <A HREF="http://www.americanwhitewater.org//content/River/detail/id/545/">AW Page for this reach</A>]]></description>
         <styleUrl>#style_med</styleUrl>
         <Point>
           <coordinates>-115.987,45.836,0</coordinates>
         </Point>
       </Placemark>	
	<Placemark>
         <name>IV-V: Clearwater, S. Fork</name>
         <description><![CDATA[<img src="http://www.americanwhitewater.org//logo/AW_logo-Vert3Color_xsmall.gif"> <br> <A HREF="http://www.americanwhitewater.org//content/River/detail/id/544/">AW Page for this reach</A>]]></description>
         <styleUrl>#style_high</styleUrl>
         <Point>
           <coordinates>-115.74,45.7974,0</coordinates>
         </Point>
       </Placemark>	
	<Placemark>
         <name>I-III: Clearwater</name>
         <description><![CDATA[<img src="http://www.americanwhitewater.org//logo/AW_logo-Vert3Color_xsmall.gif"> <br> <A HREF="http://www.americanwhitewater.org//content/River/detail/id/539/">AW Page for this reach</A>]]></description>
         <styleUrl>#style_</styleUrl>
         <Point>
           <coordinates>-116.378,46.5042,0</coordinates>
         </Point>
       </Placemark>	
	<Placemark>
         <name>II+(III): Coeur d&#039;Alene, Big North Fork</name>
         <description><![CDATA[<img src="http://www.americanwhitewater.org//logo/AW_logo-Vert3Color_xsmall.gif"> <br> <A HREF="http://www.americanwhitewater.org//content/River/detail/id/3917/">AW Page for this reach</A>]]></description>
         <styleUrl>#style_med</styleUrl>
         <Point>
           <coordinates>-116.097,47.9444,0</coordinates>
         </Point>
       </Placemark>	
	<Placemark>
         <name>II-III: Coeur d&#039;Alene, Little North Fork</name>
         <description><![CDATA[<img src="http://www.americanwhitewater.org//logo/AW_logo-Vert3Color_xsmall.gif"> <br> <A HREF="http://www.americanwhitewater.org//content/River/detail/id/548/">AW Page for this reach</A>]]></description>
         <styleUrl>#style_med</styleUrl>
         <Point>
           <coordinates>-116.377,47.7064,0</coordinates>
         </Point>
       </Placemark>	
	<Placemark>
         <name>I(II): Coeur d&#039;Alene, North Fork</name>
         <description><![CDATA[<img src="http://www.americanwhitewater.org//logo/AW_logo-Vert3Color_xsmall.gif"> <br> <A HREF="http://www.americanwhitewater.org//content/River/detail/id/4468/">AW Page for this reach</A>]]></description>
         <styleUrl>#style_med</styleUrl>
         <Point>
           <coordinates>-116.031,47.6525,0</coordinates>
         </Point>
       </Placemark>	
	<Placemark>
         <name>II: Coeur d&#039;Alene, North Fork</name>
         <description><![CDATA[<img src="http://www.americanwhitewater.org//logo/AW_logo-Vert3Color_xsmall.gif"> <br> <A HREF="http://www.americanwhitewater.org//content/River/detail/id/546/">AW Page for this reach</A>]]></description>
         <styleUrl>#style_med</styleUrl>
         <Point>
           <coordinates>-115.973,47.6473,0</coordinates>
         </Point>
       </Placemark>	
	<Placemark>
         <name>III-IV: Coeur d&#039;Alene, South Fork</name>
         <description><![CDATA[<img src="http://www.americanwhitewater.org//logo/AW_logo-Vert3Color_xsmall.gif"> <br> <A HREF="http://www.americanwhitewater.org//content/River/detail/id/4452/">AW Page for this reach</A>]]></description>
         <styleUrl>#style_low</styleUrl>
         <Point>
           <coordinates>-115.801,47.4672,0</coordinates>
         </Point>
       </Placemark>	
	<Placemark>
         <name>I: Coeur d&#039;Alene</name>
         <description><![CDATA[<img src="http://www.americanwhitewater.org//logo/AW_logo-Vert3Color_xsmall.gif"> <br> <A HREF="http://www.americanwhitewater.org//content/River/detail/id/4520/">AW Page for this reach</A>]]></description>
         <styleUrl>#style_high</styleUrl>
         <Point>
           <coordinates>-116.239,47.6103,0</coordinates>
         </Point>
       </Placemark>	
	<Placemark>
         <name>IV-V: Cow Creek</name>
         <description><![CDATA[<img src="http://www.americanwhitewater.org//logo/AW_logo-Vert3Color_xsmall.gif"> <br> <A HREF="http://www.americanwhitewater.org//content/River/detail/id/10541/">AW Page for this reach</A>]]></description>
         <styleUrl>#style_</styleUrl>
         <Point>
           <coordinates>-116.69,48.9185,0</coordinates>
         </Point>
       </Placemark>	
	<Placemark>
         <name>III-V: Crooked Fork (Lochsa trib)</name>
         <description><![CDATA[<img src="http://www.americanwhitewater.org//logo/AW_logo-Vert3Color_xsmall.gif"> <br> <A HREF="http://www.americanwhitewater.org//content/River/detail/id/549/">AW Page for this reach</A>]]></description>
         <styleUrl>#style_</styleUrl>
         <Point>
           <coordinates>-114.688,46.6717,0</coordinates>
         </Point>
       </Placemark>	
	<Placemark>
         <name>IV-V: Deadwood</name>
         <description><![CDATA[<img src="http://www.americanwhitewater.org//logo/AW_logo-Vert3Color_xsmall.gif"> <br> <A HREF="http://www.americanwhitewater.org//content/River/detail/id/550/">AW Page for this reach</A>]]></description>
         <styleUrl>#style_low</styleUrl>
         <Point>
           <coordinates>-115.644,44.2947,0</coordinates>
         </Point>
       </Placemark>	
	<Placemark>
         <name>III-IV: Deadwood</name>
         <description><![CDATA[<img src="http://www.americanwhitewater.org//logo/AW_logo-Vert3Color_xsmall.gif"> <br> <A HREF="http://www.americanwhitewater.org//content/River/detail/id/3087/">AW Page for this reach</A>]]></description>
         <styleUrl>#style_low</styleUrl>
         <Point>
           <coordinates>-115.649,44.1292,0</coordinates>
         </Point>
       </Placemark>	
	<Placemark>
         <name>I-II: Deep Creek</name>
         <description><![CDATA[<img src="http://www.americanwhitewater.org//logo/AW_logo-Vert3Color_xsmall.gif"> <br> <A HREF="http://www.americanwhitewater.org//content/River/detail/id/551/">AW Page for this reach</A>]]></description>
         <styleUrl>#style_</styleUrl>
         <Point>
           <coordinates>-116.683,42.4931,0</coordinates>
         </Point>
       </Placemark>	
	<Placemark>
         <name>III: Falls</name>
         <description><![CDATA[<img src="http://www.americanwhitewater.org//logo/AW_logo-Vert3Color_xsmall.gif"> <br> <A HREF="http://www.americanwhitewater.org//content/River/detail/id/553/">AW Page for this reach</A>]]></description>
         <styleUrl>#style_low</styleUrl>
         <Point>
           <coordinates>-111.041,44.1128,0</coordinates>
         </Point>
       </Placemark>	
	<Placemark>
         <name>III-IV: Falls</name>
         <description><![CDATA[<img src="http://www.americanwhitewater.org//logo/AW_logo-Vert3Color_xsmall.gif"> <br> <A HREF="http://www.americanwhitewater.org//content/River/detail/id/552/">AW Page for this reach</A>]]></description>
         <styleUrl>#style_low</styleUrl>
         <Point>
           <coordinates>-111.259,44.0697,0</coordinates>
         </Point>
       </Placemark>	
	<Placemark>
         <name>IV: Fish Creek</name>
         <description><![CDATA[<img src="http://www.americanwhitewater.org//logo/AW_logo-Vert3Color_xsmall.gif"> <br> <A HREF="http://www.americanwhitewater.org//content/River/detail/id/554/">AW Page for this reach</A>]]></description>
         <styleUrl>#style_med</styleUrl>
         <Point>
           <coordinates>-115.359,46.3481,0</coordinates>
         </Point>
       </Placemark>	
	<Placemark>
         <name>III-IV: Floodwood Creek</name>
         <description><![CDATA[<img src="http://www.americanwhitewater.org//logo/AW_logo-Vert3Color_xsmall.gif"> <br> <A HREF="http://www.americanwhitewater.org//content/River/detail/id/3285/">AW Page for this reach</A>]]></description>
         <styleUrl>#style_</styleUrl>
         <Point>
           <coordinates>-115.961,46.9128,0</coordinates>
         </Point>
       </Placemark>	
	<Placemark>
         <name>II-III: Grimes Creek</name>
         <description><![CDATA[<img src="http://www.americanwhitewater.org//logo/AW_logo-Vert3Color_xsmall.gif"> <br> <A HREF="http://www.americanwhitewater.org//content/River/detail/id/555/">AW Page for this reach</A>]]></description>
         <styleUrl>#style_</styleUrl>
         <Point>
           <coordinates>-115.977,43.7789,0</coordinates>
         </Point>
       </Placemark>	
	<Placemark>
         <name>IV-V: Hard Creek</name>
         <description><![CDATA[<img src="http://www.americanwhitewater.org//logo/AW_logo-Vert3Color_xsmall.gif"> <br> <A HREF="http://www.americanwhitewater.org//content/River/detail/id/556/">AW Page for this reach</A>]]></description>
         <styleUrl>#style_</styleUrl>
         <Point>
           <coordinates>-116.267,45.1567,0</coordinates>
         </Point>
       </Placemark>	
	<Placemark>
         <name>III-IV: Hazard Creek</name>
         <description><![CDATA[<img src="http://www.americanwhitewater.org//logo/AW_logo-Vert3Color_xsmall.gif"> <br> <A HREF="http://www.americanwhitewater.org//content/River/detail/id/557/">AW Page for this reach</A>]]></description>
         <styleUrl>#style_</styleUrl>
         <Point>
           <coordinates>-116.288,45.1825,0</coordinates>
         </Point>
       </Placemark>	
	<Placemark>
         <name>I-III: Henrys Fork</name>
         <description><![CDATA[<img src="http://www.americanwhitewater.org//logo/AW_logo-Vert3Color_xsmall.gif"> <br> <A HREF="http://www.americanwhitewater.org//content/River/detail/id/558/">AW Page for this reach</A>]]></description>
         <styleUrl>#style_</styleUrl>
         <Point>
           <coordinates>-111.284,44.5061,0</coordinates>
         </Point>
       </Placemark>	
	<Placemark>
         <name>II: Henrys Fork</name>
         <description><![CDATA[<img src="http://www.americanwhitewater.org//logo/AW_logo-Vert3Color_xsmall.gif"> <br> <A HREF="http://www.americanwhitewater.org//content/River/detail/id/3292/">AW Page for this reach</A>]]></description>
         <styleUrl>#style_low</styleUrl>
         <Point>
           <coordinates>-111.392,44.4145,0</coordinates>
         </Point>
       </Placemark>	
	<Placemark>
         <name>II-V: Henrys Fork</name>
         <description><![CDATA[<img src="http://www.americanwhitewater.org//logo/AW_logo-Vert3Color_xsmall.gif"> <br> <A HREF="http://www.americanwhitewater.org//content/River/detail/id/560/">AW Page for this reach</A>]]></description>
         <styleUrl>#style_med</styleUrl>
         <Point>
           <coordinates>-111.432,44.2169,0</coordinates>
         </Point>
       </Placemark>	
	<Placemark>
         <name>V: Henrys Fork</name>
         <description><![CDATA[<img src="http://www.americanwhitewater.org//logo/AW_logo-Vert3Color_xsmall.gif"> <br> <A HREF="http://www.americanwhitewater.org//content/River/detail/id/4590/">AW Page for this reach</A>]]></description>
         <styleUrl>#style_med</styleUrl>
         <Point>
           <coordinates>-111.317,44.1744,0</coordinates>
         </Point>
       </Placemark>	
	<Placemark>
         <name>II+: Henrys Fork</name>
         <description><![CDATA[<img src="http://www.americanwhitewater.org//logo/AW_logo-Vert3Color_xsmall.gif"> <br> <A HREF="http://www.americanwhitewater.org//content/River/detail/id/559/">AW Page for this reach</A>]]></description>
         <styleUrl>#style_med</styleUrl>
         <Point>
           <coordinates>-111.319,44.1741,0</coordinates>
         </Point>
       </Placemark>	
	<Placemark>
         <name>II-V: Jarbidge</name>
         <description><![CDATA[<img src="http://www.americanwhitewater.org//logo/AW_logo-Vert3Color_xsmall.gif"> <br> <A HREF="http://www.americanwhitewater.org//content/River/detail/id/561/">AW Page for this reach</A>]]></description>
         <styleUrl>#style_low</styleUrl>
         <Point>
           <coordinates>-115.39,42.0494,0</coordinates>
         </Point>
       </Placemark>	
	<Placemark>
         <name>IV-V+: Johnson Creek</name>
         <description><![CDATA[<img src="http://www.americanwhitewater.org//logo/AW_logo-Vert3Color_xsmall.gif"> <br> <A HREF="http://www.americanwhitewater.org//content/River/detail/id/3134/">AW Page for this reach</A>]]></description>
         <styleUrl>#style_low</styleUrl>
         <Point>
           <coordinates>-115.58,44.5511,0</coordinates>
         </Point>
       </Placemark>	
	<Placemark>
         <name>II(III): Johnson Creek</name>
         <description><![CDATA[<img src="http://www.americanwhitewater.org//logo/AW_logo-Vert3Color_xsmall.gif"> <br> <A HREF="http://www.americanwhitewater.org//content/River/detail/id/562/">AW Page for this reach</A>]]></description>
         <styleUrl>#style_med</styleUrl>
         <Point>
           <coordinates>-115.491,44.899,0</coordinates>
         </Point>
       </Placemark>	
	<Placemark>
         <name>III-IV: Kelly Creek</name>
         <description><![CDATA[<img src="http://www.americanwhitewater.org//logo/AW_logo-Vert3Color_xsmall.gif"> <br> <A HREF="http://www.americanwhitewater.org//content/River/detail/id/563/">AW Page for this reach</A>]]></description>
         <styleUrl>#style_</styleUrl>
         <Point>
           <coordinates>-115.102,46.7172,0</coordinates>
         </Point>
       </Placemark>	
	<Placemark>
         <name>II: Kootenai</name>
         <description><![CDATA[<img src="http://www.americanwhitewater.org//logo/AW_logo-Vert3Color_xsmall.gif"> <br> <A HREF="http://www.americanwhitewater.org//content/River/detail/id/564/">AW Page for this reach</A>]]></description>
         <styleUrl>#style_</styleUrl>
         <Point>
           <coordinates>-116.046,48.6163,0</coordinates>
         </Point>
       </Placemark>	
	<Placemark>
         <name>III+: Lightning Creek</name>
         <description><![CDATA[<img src="http://www.americanwhitewater.org//logo/AW_logo-Vert3Color_xsmall.gif"> <br> <A HREF="http://www.americanwhitewater.org//content/River/detail/id/10495/">AW Page for this reach</A>]]></description>
         <styleUrl>#style_low</styleUrl>
         <Point>
           <coordinates>-116.122,48.266,0</coordinates>
         </Point>
       </Placemark>	
	<Placemark>
         <name>V+: Lion Creek</name>
         <description><![CDATA[<img src="http://www.americanwhitewater.org//logo/AW_logo-Vert3Color_xsmall.gif"> <br> <A HREF="http://www.americanwhitewater.org//content/River/detail/id/4596/">AW Page for this reach</A>]]></description>
         <styleUrl>#style_</styleUrl>
         <Point>
           <coordinates>-116.768,48.7492,0</coordinates>
         </Point>
       </Placemark>	
	<Placemark>
         <name>I: Little Owyhee</name>
         <description><![CDATA[<img src="http://www.americanwhitewater.org//logo/AW_logo-Vert3Color_xsmall.gif"> <br> <A HREF="http://www.americanwhitewater.org//content/River/detail/id/4144/">AW Page for this reach</A>]]></description>
         <styleUrl>#style_</styleUrl>
         <Point>
           <coordinates>-116.985,41.8147,0</coordinates>
         </Point>
       </Placemark>	
	<Placemark>
         <name>IV-V: Little Potlatch River</name>
         <description><![CDATA[<img src="http://www.americanwhitewater.org//logo/AW_logo-Vert3Color_xsmall.gif"> <br> <A HREF="http://www.americanwhitewater.org//content/River/detail/id/5013/">AW Page for this reach</A>]]></description>
         <styleUrl>#style_low</styleUrl>
         <Point>
           <coordinates>-116.796,46.5987,0</coordinates>
         </Point>
       </Placemark>	
	<Placemark>
         <name>III-V: Little Salmon</name>
         <description><![CDATA[<img src="http://www.americanwhitewater.org//logo/AW_logo-Vert3Color_xsmall.gif"> <br> <A HREF="http://www.americanwhitewater.org//content/River/detail/id/565/">AW Page for this reach</A>]]></description>
         <styleUrl>#style_low</styleUrl>
         <Point>
           <coordinates>-116.295,45.1239,0</coordinates>
         </Point>
       </Placemark>	
	<Placemark>
         <name>II-V: Little Salmon</name>
         <description><![CDATA[<img src="http://www.americanwhitewater.org//logo/AW_logo-Vert3Color_xsmall.gif"> <br> <A HREF="http://www.americanwhitewater.org//content/River/detail/id/566/">AW Page for this reach</A>]]></description>
         <styleUrl>#style_med</styleUrl>
         <Point>
           <coordinates>-116.307,45.1861,0</coordinates>
         </Point>
       </Placemark>	
	<Placemark>
         <name>II-III: Little Wood</name>
         <description><![CDATA[<img src="http://www.americanwhitewater.org//logo/AW_logo-Vert3Color_xsmall.gif"> <br> <A HREF="http://www.americanwhitewater.org//content/River/detail/id/567/">AW Page for this reach</A>]]></description>
         <styleUrl>#style_</styleUrl>
         <Point>
           <coordinates>-114.013,43.195,0</coordinates>
         </Point>
       </Placemark>	
	<Placemark>
         <name>II-III: Lochsa</name>
         <description><![CDATA[<img src="http://www.americanwhitewater.org//logo/AW_logo-Vert3Color_xsmall.gif"> <br> <A HREF="http://www.americanwhitewater.org//content/River/detail/id/568/">AW Page for this reach</A>]]></description>
         <styleUrl>#style_med</styleUrl>
         <Point>
           <coordinates>-114.686,46.5062,0</coordinates>
         </Point>
       </Placemark>	
	<Placemark>
         <name>IV: Lochsa</name>
         <description><![CDATA[<img src="http://www.americanwhitewater.org//logo/AW_logo-Vert3Color_xsmall.gif"> <br> <A HREF="http://www.americanwhitewater.org//content/River/detail/id/569/">AW Page for this reach</A>]]></description>
         <styleUrl>#style_med</styleUrl>
         <Point>
           <coordinates>-115.083,46.4437,0</coordinates>
         </Point>
       </Placemark>	
	<Placemark>
         <name>III-IV: Lochsa</name>
         <description><![CDATA[<img src="http://www.americanwhitewater.org//logo/AW_logo-Vert3Color_xsmall.gif"> <br> <A HREF="http://www.americanwhitewater.org//content/River/detail/id/570/">AW Page for this reach</A>]]></description>
         <styleUrl>#style_med</styleUrl>
         <Point>
           <coordinates>-115.308,46.3441,0</coordinates>
         </Point>
       </Placemark>	
	<Placemark>
         <name>II-III+: Lochsa</name>
         <description><![CDATA[<img src="http://www.americanwhitewater.org//logo/AW_logo-Vert3Color_xsmall.gif"> <br> <A HREF="http://www.americanwhitewater.org//content/River/detail/id/571/">AW Page for this reach</A>]]></description>
         <styleUrl>#style_med</styleUrl>
         <Point>
           <coordinates>-115.417,46.2305,0</coordinates>
         </Point>
       </Placemark>	
	<Placemark>
         <name>II+: Lolo Creek</name>
         <description><![CDATA[<img src="http://www.americanwhitewater.org//logo/AW_logo-Vert3Color_xsmall.gif"> <br> <A HREF="http://www.americanwhitewater.org//content/River/detail/id/1235/">AW Page for this reach</A>]]></description>
         <styleUrl>#style_</styleUrl>
         <Point>
           <coordinates>-115.75,46.2945,0</coordinates>
         </Point>
       </Placemark>	
	<Placemark>
         <name>IV+: Lolo Creek</name>
         <description><![CDATA[<img src="http://www.americanwhitewater.org//logo/AW_logo-Vert3Color_xsmall.gif"> <br> <A HREF="http://www.americanwhitewater.org//content/River/detail/id/572/">AW Page for this reach</A>]]></description>
         <styleUrl>#style_</styleUrl>
         <Point>
           <coordinates>-115.911,46.2967,0</coordinates>
         </Point>
       </Placemark>	
	<Placemark>
         <name>IV-V: Loon Creek</name>
         <description><![CDATA[<img src="http://www.americanwhitewater.org//logo/AW_logo-Vert3Color_xsmall.gif"> <br> <A HREF="http://www.americanwhitewater.org//content/River/detail/id/573/">AW Page for this reach</A>]]></description>
         <styleUrl>#style_</styleUrl>
         <Point>
           <coordinates>-114.828,44.5853,0</coordinates>
         </Point>
       </Placemark>	
	<Placemark>
         <name>I-III: Malad (aka Big Wood)</name>
         <description><![CDATA[<img src="http://www.americanwhitewater.org//logo/AW_logo-Vert3Color_xsmall.gif"> <br> <A HREF="http://www.americanwhitewater.org//content/River/detail/id/522/">AW Page for this reach</A>]]></description>
         <styleUrl>#style_</styleUrl>
         <Point>
           <coordinates>-114.365,43.2517,0</coordinates>
         </Point>
       </Placemark>	
	<Placemark>
         <name>I-III: Malad (aka Big Wood)</name>
         <description><![CDATA[<img src="http://www.americanwhitewater.org//logo/AW_logo-Vert3Color_xsmall.gif"> <br> <A HREF="http://www.americanwhitewater.org//content/River/detail/id/521/">AW Page for this reach</A>]]></description>
         <styleUrl>#style_</styleUrl>
         <Point>
           <coordinates>-114.395,42.9841,0</coordinates>
         </Point>
       </Placemark>	
	<Placemark>
         <name>V+: Malad (aka Big Wood)</name>
         <description><![CDATA[<img src="http://www.americanwhitewater.org//logo/AW_logo-Vert3Color_xsmall.gif"> <br> <A HREF="http://www.americanwhitewater.org//content/River/detail/id/10577/">AW Page for this reach</A>]]></description>
         <styleUrl>#style_med</styleUrl>
         <Point>
           <coordinates>-114.85,42.8678,0</coordinates>
         </Point>
       </Placemark>	
	<Placemark>
         <name>IV: Malad (aka Big Wood)</name>
         <description><![CDATA[<img src="http://www.americanwhitewater.org//logo/AW_logo-Vert3Color_xsmall.gif"> <br> <A HREF="http://www.americanwhitewater.org//content/River/detail/id/574/">AW Page for this reach</A>]]></description>
         <styleUrl>#style_</styleUrl>
         <Point>
           <coordinates>-114.871,42.8662,0</coordinates>
         </Point>
       </Placemark>	
	<Placemark>
         <name>III-IV: Marble Creek (Tributary of St. Joe River)</name>
         <description><![CDATA[<img src="http://www.americanwhitewater.org//logo/AW_logo-Vert3Color_xsmall.gif"> <br> <A HREF="http://www.americanwhitewater.org//content/River/detail/id/575/">AW Page for this reach</A>]]></description>
         <styleUrl>#style_med</styleUrl>
         <Point>
           <coordinates>-116.096,47.1237,0</coordinates>
         </Point>
       </Placemark>	
	<Placemark>
         <name>II-III: Marsh Creek</name>
         <description><![CDATA[<img src="http://www.americanwhitewater.org//logo/AW_logo-Vert3Color_xsmall.gif"> <br> <A HREF="http://www.americanwhitewater.org//content/River/detail/id/576/">AW Page for this reach</A>]]></description>
         <styleUrl>#style_</styleUrl>
         <Point>
           <coordinates>-115.164,44.3908,0</coordinates>
         </Point>
       </Placemark>	
	<Placemark>
         <name>III-IV: Marys Creek</name>
         <description><![CDATA[<img src="http://www.americanwhitewater.org//logo/AW_logo-Vert3Color_xsmall.gif"> <br> <A HREF="http://www.americanwhitewater.org//content/River/detail/id/4147/">AW Page for this reach</A>]]></description>
         <styleUrl>#style_</styleUrl>
         <Point>
           <coordinates>-115.828,42.3125,0</coordinates>
         </Point>
       </Placemark>	
	<Placemark>
         <name>V: Meadow Creek</name>
         <description><![CDATA[<img src="http://www.americanwhitewater.org//logo/AW_logo-Vert3Color_xsmall.gif"> <br> <A HREF="http://www.americanwhitewater.org//content/River/detail/id/5792/">AW Page for this reach</A>]]></description>
         <styleUrl>#style_</styleUrl>
         <Point>
           <coordinates>-115.128,45.7767,0</coordinates>
         </Point>
       </Placemark>	
	<Placemark>
         <name>III-IV: Monumental Creek</name>
         <description><![CDATA[<img src="http://www.americanwhitewater.org//logo/AW_logo-Vert3Color_xsmall.gif"> <br> <A HREF="http://www.americanwhitewater.org//content/River/detail/id/3088/">AW Page for this reach</A>]]></description>
         <styleUrl>#style_</styleUrl>
         <Point>
           <coordinates>-115.118,45.0187,0</coordinates>
         </Point>
       </Placemark>	
	<Placemark>
         <name>III-IV: Moose Creek</name>
         <description><![CDATA[<img src="http://www.americanwhitewater.org//logo/AW_logo-Vert3Color_xsmall.gif"> <br> <A HREF="http://www.americanwhitewater.org//content/River/detail/id/577/">AW Page for this reach</A>]]></description>
         <styleUrl>#style_</styleUrl>
         <Point>
           <coordinates>-114.693,46.2672,0</coordinates>
         </Point>
       </Placemark>	
	<Placemark>
         <name>II-III: Mores Creek</name>
         <description><![CDATA[<img src="http://www.americanwhitewater.org//logo/AW_logo-Vert3Color_xsmall.gif"> <br> <A HREF="http://www.americanwhitewater.org//content/River/detail/id/578/">AW Page for this reach</A>]]></description>
         <styleUrl>#style_low</styleUrl>
         <Point>
           <coordinates>-115.892,43.7803,0</coordinates>
         </Point>
       </Placemark>	
	<Placemark>
         <name>III-IV: Moyie</name>
         <description><![CDATA[<img src="http://www.americanwhitewater.org//logo/AW_logo-Vert3Color_xsmall.gif"> <br> <A HREF="http://www.americanwhitewater.org//content/River/detail/id/579/">AW Page for this reach</A>]]></description>
         <styleUrl>#style_med</styleUrl>
         <Point>
           <coordinates>-116.164,48.8239,0</coordinates>
         </Point>
       </Placemark>	
	<Placemark>
         <name>III-IV: Owyhee, N. Fork</name>
         <description><![CDATA[<img src="http://www.americanwhitewater.org//logo/AW_logo-Vert3Color_xsmall.gif"> <br> <A HREF="http://www.americanwhitewater.org//content/River/detail/id/582/">AW Page for this reach</A>]]></description>
         <styleUrl>#style_</styleUrl>
         <Point>
           <coordinates>-116.982,42.5918,0</coordinates>
         </Point>
       </Placemark>	
	<Placemark>
         <name>II-III+: Owyhee, South Fork</name>
         <description><![CDATA[<img src="http://www.americanwhitewater.org//logo/AW_logo-Vert3Color_xsmall.gif"> <br> <A HREF="http://www.americanwhitewater.org//content/River/detail/id/4141/">AW Page for this reach</A>]]></description>
         <styleUrl>#style_</styleUrl>
         <Point>
           <coordinates>-116.473,41.8051,0</coordinates>
         </Point>
       </Placemark>	
	<Placemark>
         <name>II: Owyhee</name>
         <description><![CDATA[<img src="http://www.americanwhitewater.org//logo/AW_logo-Vert3Color_xsmall.gif"> <br> <A HREF="http://www.americanwhitewater.org//content/River/detail/id/581/">AW Page for this reach</A>]]></description>
         <styleUrl>#style_</styleUrl>
         <Point>
           <coordinates>-116.277,42.0812,0</coordinates>
         </Point>
       </Placemark>	
	<Placemark>
         <name>III: Owyhee</name>
         <description><![CDATA[<img src="http://www.americanwhitewater.org//logo/AW_logo-Vert3Color_xsmall.gif"> <br> <A HREF="http://www.americanwhitewater.org//content/River/detail/id/580/">AW Page for this reach</A>]]></description>
         <styleUrl>#style_low</styleUrl>
         <Point>
           <coordinates>-116.871,42.2605,0</coordinates>
         </Point>
       </Placemark>	
	<Placemark>
         <name>V+: Pack</name>
         <description><![CDATA[<img src="http://www.americanwhitewater.org//logo/AW_logo-Vert3Color_xsmall.gif"> <br> <A HREF="http://www.americanwhitewater.org//content/River/detail/id/4521/">AW Page for this reach</A>]]></description>
         <styleUrl>#style_</styleUrl>
         <Point>
           <coordinates>-116.628,48.6248,0</coordinates>
         </Point>
       </Placemark>	
	<Placemark>
         <name>IV-V: Pack</name>
         <description><![CDATA[<img src="http://www.americanwhitewater.org//logo/AW_logo-Vert3Color_xsmall.gif"> <br> <A HREF="http://www.americanwhitewater.org//content/River/detail/id/4522/">AW Page for this reach</A>]]></description>
         <styleUrl>#style_</styleUrl>
         <Point>
           <coordinates>-116.636,48.6119,0</coordinates>
         </Point>
       </Placemark>	
	<Placemark>
         <name>IV-V: Pack</name>
         <description><![CDATA[<img src="http://www.americanwhitewater.org//logo/AW_logo-Vert3Color_xsmall.gif"> <br> <A HREF="http://www.americanwhitewater.org//content/River/detail/id/4523/">AW Page for this reach</A>]]></description>
         <styleUrl>#style_</styleUrl>
         <Point>
           <coordinates>-116.595,48.5335,0</coordinates>
         </Point>
       </Placemark>	
	<Placemark>
         <name>I-III: Pack</name>
         <description><![CDATA[<img src="http://www.americanwhitewater.org//logo/AW_logo-Vert3Color_xsmall.gif"> <br> <A HREF="http://www.americanwhitewater.org//content/River/detail/id/584/">AW Page for this reach</A>]]></description>
         <styleUrl>#style_</styleUrl>
         <Point>
           <coordinates>-116.636,48.5994,0</coordinates>
         </Point>
       </Placemark>	
	<Placemark>
         <name>II: Pack</name>
         <description><![CDATA[<img src="http://www.americanwhitewater.org//logo/AW_logo-Vert3Color_xsmall.gif"> <br> <A HREF="http://www.americanwhitewater.org//content/River/detail/id/585/">AW Page for this reach</A>]]></description>
         <styleUrl>#style_</styleUrl>
         <Point>
           <coordinates>-116.408,48.3643,0</coordinates>
         </Point>
       </Placemark>	
	<Placemark>
         <name>III-V: Panther Creek</name>
         <description><![CDATA[<img src="http://www.americanwhitewater.org//logo/AW_logo-Vert3Color_xsmall.gif"> <br> <A HREF="http://www.americanwhitewater.org//content/River/detail/id/3089/">AW Page for this reach</A>]]></description>
         <styleUrl>#style_</styleUrl>
         <Point>
           <coordinates>-114.298,45.1661,0</coordinates>
         </Point>
       </Placemark>	
	<Placemark>
         <name>III: Panther Creek</name>
         <description><![CDATA[<img src="http://www.americanwhitewater.org//logo/AW_logo-Vert3Color_xsmall.gif"> <br> <A HREF="http://www.americanwhitewater.org//content/River/detail/id/586/">AW Page for this reach</A>]]></description>
         <styleUrl>#style_</styleUrl>
         <Point>
           <coordinates>-114.374,45.2853,0</coordinates>
         </Point>
       </Placemark>	
	<Placemark>
         <name>II-IV: Payette, Middle Fork</name>
         <description><![CDATA[<img src="http://www.americanwhitewater.org//logo/AW_logo-Vert3Color_xsmall.gif"> <br> <A HREF="http://www.americanwhitewater.org//content/River/detail/id/4120/">AW Page for this reach</A>]]></description>
         <styleUrl>#style_med</styleUrl>
         <Point>
           <coordinates>-115.899,44.2382,0</coordinates>
         </Point>
       </Placemark>	
	<Placemark>
         <name>IV: Payette, Middle Fork</name>
         <description><![CDATA[<img src="http://www.americanwhitewater.org//logo/AW_logo-Vert3Color_xsmall.gif"> <br> <A HREF="http://www.americanwhitewater.org//content/River/detail/id/588/">AW Page for this reach</A>]]></description>
         <styleUrl>#style_med</styleUrl>
         <Point>
           <coordinates>-115.865,44.3247,0</coordinates>
         </Point>
       </Placemark>	
	<Placemark>
         <name>II-IV: Payette, N. Fork</name>
         <description><![CDATA[<img src="http://www.americanwhitewater.org//logo/AW_logo-Vert3Color_xsmall.gif"> <br> <A HREF="http://www.americanwhitewater.org//content/River/detail/id/589/">AW Page for this reach</A>]]></description>
         <styleUrl>#style_</styleUrl>
         <Point>
           <coordinates>-116.028,45.1197,0</coordinates>
         </Point>
       </Placemark>	
	<Placemark>
         <name>II-III: Payette, N. Fork</name>
         <description><![CDATA[<img src="http://www.americanwhitewater.org//logo/AW_logo-Vert3Color_xsmall.gif"> <br> <A HREF="http://www.americanwhitewater.org//content/River/detail/id/590/">AW Page for this reach</A>]]></description>
         <styleUrl>#style_med</styleUrl>
         <Point>
           <coordinates>-116.127,44.8939,0</coordinates>
         </Point>
       </Placemark>	
	<Placemark>
         <name>II-III: Payette, N. Fork</name>
         <description><![CDATA[<img src="http://www.americanwhitewater.org//logo/AW_logo-Vert3Color_xsmall.gif"> <br> <A HREF="http://www.americanwhitewater.org//content/River/detail/id/591/">AW Page for this reach</A>]]></description>
         <styleUrl>#style_med</styleUrl>
         <Point>
           <coordinates>-116.032,44.4135,0</coordinates>
         </Point>
       </Placemark>	
	<Placemark>
         <name>V: Payette, N. Fork</name>
         <description><![CDATA[<img src="http://www.americanwhitewater.org//logo/AW_logo-Vert3Color_xsmall.gif"> <br> <A HREF="http://www.americanwhitewater.org//content/River/detail/id/592/">AW Page for this reach</A>]]></description>
         <styleUrl>#style_med</styleUrl>
         <Point>
           <coordinates>-116.093,44.2906,0</coordinates>
         </Point>
       </Placemark>	
	<Placemark>
         <name>III-IV: Payette, S. Fork</name>
         <description><![CDATA[<img src="http://www.americanwhitewater.org//logo/AW_logo-Vert3Color_xsmall.gif"> <br> <A HREF="http://www.americanwhitewater.org//content/River/detail/id/593/">AW Page for this reach</A>]]></description>
         <styleUrl>#style_med</styleUrl>
         <Point>
           <coordinates>-115.189,44.1622,0</coordinates>
         </Point>
       </Placemark>	
	<Placemark>
         <name>III-IV: Payette, S. Fork</name>
         <description><![CDATA[<img src="http://www.americanwhitewater.org//logo/AW_logo-Vert3Color_xsmall.gif"> <br> <A HREF="http://www.americanwhitewater.org//content/River/detail/id/594/">AW Page for this reach</A>]]></description>
         <styleUrl>#style_med</styleUrl>
         <Point>
           <coordinates>-115.659,44.0791,0</coordinates>
         </Point>
       </Placemark>	
	<Placemark>
         <name>III+: Payette, S. Fork</name>
         <description><![CDATA[<img src="http://www.americanwhitewater.org//logo/AW_logo-Vert3Color_xsmall.gif"> <br> <A HREF="http://www.americanwhitewater.org//content/River/detail/id/4121/">AW Page for this reach</A>]]></description>
         <styleUrl>#style_med</styleUrl>
         <Point>
           <coordinates>-115.813,44.0621,0</coordinates>
         </Point>
       </Placemark>	
	<Placemark>
         <name>IV: Payette, S. Fork</name>
         <description><![CDATA[<img src="http://www.americanwhitewater.org//logo/AW_logo-Vert3Color_xsmall.gif"> <br> <A HREF="http://www.americanwhitewater.org//content/River/detail/id/596/">AW Page for this reach</A>]]></description>
         <styleUrl>#style_med</styleUrl>
         <Point>
           <coordinates>-116.037,44.0926,0</coordinates>
         </Point>
       </Placemark>	
	<Placemark>
         <name>III+: Payette</name>
         <description><![CDATA[<img src="http://www.americanwhitewater.org//logo/AW_logo-Vert3Color_xsmall.gif"> <br> <A HREF="http://www.americanwhitewater.org//content/River/detail/id/4360/">AW Page for this reach</A>]]></description>
         <styleUrl>#style_med</styleUrl>
         <Point>
           <coordinates>-116.116,44.0849,0</coordinates>
         </Point>
       </Placemark>	
	<Placemark>
         <name>II+(III): Payette</name>
         <description><![CDATA[<img src="http://www.americanwhitewater.org//logo/AW_logo-Vert3Color_xsmall.gif"> <br> <A HREF="http://www.americanwhitewater.org//content/River/detail/id/4156/">AW Page for this reach</A>]]></description>
         <styleUrl>#style_med</styleUrl>
         <Point>
           <coordinates>-116.157,44.0141,0</coordinates>
         </Point>
       </Placemark>	
	<Placemark>
         <name>II+: Payette</name>
         <description><![CDATA[<img src="http://www.americanwhitewater.org//logo/AW_logo-Vert3Color_xsmall.gif"> <br> <A HREF="http://www.americanwhitewater.org//content/River/detail/id/587/">AW Page for this reach</A>]]></description>
         <styleUrl>#style_med</styleUrl>
         <Point>
           <coordinates>-116.19,43.9086,0</coordinates>
         </Point>
       </Placemark>	
	<Placemark>
         <name>II-III: Pine Creek</name>
         <description><![CDATA[<img src="http://www.americanwhitewater.org//logo/AW_logo-Vert3Color_xsmall.gif"> <br> <A HREF="http://www.americanwhitewater.org//content/River/detail/id/597/">AW Page for this reach</A>]]></description>
         <styleUrl>#style_</styleUrl>
         <Point>
           <coordinates>-111.172,43.5884,0</coordinates>
         </Point>
       </Placemark>	
	<Placemark>
         <name>I-V: Portneuf</name>
         <description><![CDATA[<img src="http://www.americanwhitewater.org//logo/AW_logo-Vert3Color_xsmall.gif"> <br> <A HREF="http://www.americanwhitewater.org//content/River/detail/id/599/">AW Page for this reach</A>]]></description>
         <styleUrl>#style_</styleUrl>
         <Point>
           <coordinates>-112.127,42.6264,0</coordinates>
         </Point>
       </Placemark>	
	<Placemark>
         <name>I-V: Portneuf</name>
         <description><![CDATA[<img src="http://www.americanwhitewater.org//logo/AW_logo-Vert3Color_xsmall.gif"> <br> <A HREF="http://www.americanwhitewater.org//content/River/detail/id/600/">AW Page for this reach</A>]]></description>
         <styleUrl>#style_</styleUrl>
         <Point>
           <coordinates>-112.401,42.8211,0</coordinates>
         </Point>
       </Placemark>	
	<Placemark>
         <name>III-IV: Portneuf</name>
         <description><![CDATA[<img src="http://www.americanwhitewater.org//logo/AW_logo-Vert3Color_xsmall.gif"> <br> <A HREF="http://www.americanwhitewater.org//content/River/detail/id/598/">AW Page for this reach</A>]]></description>
         <styleUrl>#style_med</styleUrl>
         <Point>
           <coordinates>-112.01,42.6198,0</coordinates>
         </Point>
       </Placemark>	
	<Placemark>
         <name>II-V: Potlatch</name>
         <description><![CDATA[<img src="http://www.americanwhitewater.org//logo/AW_logo-Vert3Color_xsmall.gif"> <br> <A HREF="http://www.americanwhitewater.org//content/River/detail/id/601/">AW Page for this reach</A>]]></description>
         <styleUrl>#style_low</styleUrl>
         <Point>
           <coordinates>-116.456,46.7833,0</coordinates>
         </Point>
       </Placemark>	
	<Placemark>
         <name>II-III: Potlatch</name>
         <description><![CDATA[<img src="http://www.americanwhitewater.org//logo/AW_logo-Vert3Color_xsmall.gif"> <br> <A HREF="http://www.americanwhitewater.org//content/River/detail/id/602/">AW Page for this reach</A>]]></description>
         <styleUrl>#style_med</styleUrl>
         <Point>
           <coordinates>-116.549,46.655,0</coordinates>
         </Point>
       </Placemark>	
	<Placemark>
         <name>V+: Priest</name>
         <description><![CDATA[<img src="http://www.americanwhitewater.org//logo/AW_logo-Vert3Color_xsmall.gif"> <br> <A HREF="http://www.americanwhitewater.org//content/River/detail/id/603/">AW Page for this reach</A>]]></description>
         <styleUrl>#style_</styleUrl>
         <Point>
           <coordinates>-116.935,48.9829,0</coordinates>
         </Point>
       </Placemark>	
	<Placemark>
         <name>II-III: Priest</name>
         <description><![CDATA[<img src="http://www.americanwhitewater.org//logo/AW_logo-Vert3Color_xsmall.gif"> <br> <A HREF="http://www.americanwhitewater.org//content/River/detail/id/604/">AW Page for this reach</A>]]></description>
         <styleUrl>#style_med</styleUrl>
         <Point>
           <coordinates>-116.922,48.4146,0</coordinates>
         </Point>
       </Placemark>	
	<Placemark>
         <name>IV: Rapid</name>
         <description><![CDATA[<img src="http://www.americanwhitewater.org//logo/AW_logo-Vert3Color_xsmall.gif"> <br> <A HREF="http://www.americanwhitewater.org//content/River/detail/id/605/">AW Page for this reach</A>]]></description>
         <styleUrl>#style_</styleUrl>
         <Point>
           <coordinates>-115.076,44.5667,0</coordinates>
         </Point>
       </Placemark>	
	<Placemark>
         <name>II-III: Robinson Creek</name>
         <description><![CDATA[<img src="http://www.americanwhitewater.org//logo/AW_logo-Vert3Color_xsmall.gif"> <br> <A HREF="http://www.americanwhitewater.org//content/River/detail/id/606/">AW Page for this reach</A>]]></description>
         <styleUrl>#style_</styleUrl>
         <Point>
           <coordinates>-111.077,44.1915,0</coordinates>
         </Point>
       </Placemark>	
	<Placemark>
         <name>IV: Salmon, E. Fork of S. Fork</name>
         <description><![CDATA[<img src="http://www.americanwhitewater.org//logo/AW_logo-Vert3Color_xsmall.gif"> <br> <A HREF="http://www.americanwhitewater.org//content/River/detail/id/616/">AW Page for this reach</A>]]></description>
         <styleUrl>#style_med</styleUrl>
         <Point>
           <coordinates>-115.469,44.9614,0</coordinates>
         </Point>
       </Placemark>	
	<Placemark>
         <name>III-V: Salmon, E. Fork of S. Fork</name>
         <description><![CDATA[<img src="http://www.americanwhitewater.org//logo/AW_logo-Vert3Color_xsmall.gif"> <br> <A HREF="http://www.americanwhitewater.org//content/River/detail/id/615/">AW Page for this reach</A>]]></description>
         <styleUrl>#style_med</styleUrl>
         <Point>
           <coordinates>-115.538,44.9554,0</coordinates>
         </Point>
       </Placemark>	
	<Placemark>
         <name>III-IV: Salmon, Middle Fork</name>
         <description><![CDATA[<img src="http://www.americanwhitewater.org//logo/AW_logo-Vert3Color_xsmall.gif"> <br> <A HREF="http://www.americanwhitewater.org//content/River/detail/id/617/">AW Page for this reach</A>]]></description>
         <styleUrl>#style_</styleUrl>
         <Point>
           <coordinates>-115.183,44.4089,0</coordinates>
         </Point>
       </Placemark>	
	<Placemark>
         <name>III-IV: Salmon, Middle Fork</name>
         <description><![CDATA[<img src="http://www.americanwhitewater.org//logo/AW_logo-Vert3Color_xsmall.gif"> <br> <A HREF="http://www.americanwhitewater.org//content/River/detail/id/618/">AW Page for this reach</A>]]></description>
         <styleUrl>#style_med</styleUrl>
         <Point>
           <coordinates>-115.296,44.5289,0</coordinates>
         </Point>
       </Placemark>	
	<Placemark>
         <name>IV-V: Salmon, S. Fork</name>
         <description><![CDATA[<img src="http://www.americanwhitewater.org//logo/AW_logo-Vert3Color_xsmall.gif"> <br> <A HREF="http://www.americanwhitewater.org//content/River/detail/id/619/">AW Page for this reach</A>]]></description>
         <styleUrl>#style_med</styleUrl>
         <Point>
           <coordinates>-115.687,44.755,0</coordinates>
         </Point>
       </Placemark>	
	<Placemark>
         <name>II-V: Salmon, S. Fork</name>
         <description><![CDATA[<img src="http://www.americanwhitewater.org//logo/AW_logo-Vert3Color_xsmall.gif"> <br> <A HREF="http://www.americanwhitewater.org//content/River/detail/id/620/">AW Page for this reach</A>]]></description>
         <styleUrl>#style_med</styleUrl>
         <Point>
           <coordinates>-115.712,44.8161,0</coordinates>
         </Point>
       </Placemark>	
	<Placemark>
         <name>IV-V: Salmon, S. Fork</name>
         <description><![CDATA[<img src="http://www.americanwhitewater.org//logo/AW_logo-Vert3Color_xsmall.gif"> <br> <A HREF="http://www.americanwhitewater.org//content/River/detail/id/621/">AW Page for this reach</A>]]></description>
         <styleUrl>#style_med</styleUrl>
         <Point>
           <coordinates>-115.714,45.0146,0</coordinates>
         </Point>
       </Placemark>	
	<Placemark>
         <name>IV-V: Salmon, Yankee Fork</name>
         <description><![CDATA[<img src="http://www.americanwhitewater.org//logo/AW_logo-Vert3Color_xsmall.gif"> <br> <A HREF="http://www.americanwhitewater.org//content/River/detail/id/649/">AW Page for this reach</A>]]></description>
         <styleUrl>#style_</styleUrl>
         <Point>
           <coordinates>-114.553,44.4914,0</coordinates>
         </Point>
       </Placemark>	
	<Placemark>
         <name>II-III: Salmon</name>
         <description><![CDATA[<img src="http://www.americanwhitewater.org//logo/AW_logo-Vert3Color_xsmall.gif"> <br> <A HREF="http://www.americanwhitewater.org//content/River/detail/id/607/">AW Page for this reach</A>]]></description>
         <styleUrl>#style_</styleUrl>
         <Point>
           <coordinates>-114.834,44.0519,0</coordinates>
         </Point>
       </Placemark>	
	<Placemark>
         <name>III-IV: Salmon</name>
         <description><![CDATA[<img src="http://www.americanwhitewater.org//logo/AW_logo-Vert3Color_xsmall.gif"> <br> <A HREF="http://www.americanwhitewater.org//content/River/detail/id/608/">AW Page for this reach</A>]]></description>
         <styleUrl>#style_</styleUrl>
         <Point>
           <coordinates>-114.929,44.2178,0</coordinates>
         </Point>
       </Placemark>	
	<Placemark>
         <name>IV: Salmon</name>
         <description><![CDATA[<img src="http://www.americanwhitewater.org//logo/AW_logo-Vert3Color_xsmall.gif"> <br> <A HREF="http://www.americanwhitewater.org//content/River/detail/id/609/">AW Page for this reach</A>]]></description>
         <styleUrl>#style_</styleUrl>
         <Point>
           <coordinates>-114.733,44.2672,0</coordinates>
         </Point>
       </Placemark>	
	<Placemark>
         <name>II: Salmon</name>
         <description><![CDATA[<img src="http://www.americanwhitewater.org//logo/AW_logo-Vert3Color_xsmall.gif"> <br> <A HREF="http://www.americanwhitewater.org//content/River/detail/id/610/">AW Page for this reach</A>]]></description>
         <styleUrl>#style_</styleUrl>
         <Point>
           <coordinates>-114.326,44.2703,0</coordinates>
         </Point>
       </Placemark>	
	<Placemark>
         <name>III: Salmon</name>
         <description><![CDATA[<img src="http://www.americanwhitewater.org//logo/AW_logo-Vert3Color_xsmall.gif"> <br> <A HREF="http://www.americanwhitewater.org//content/River/detail/id/611/">AW Page for this reach</A>]]></description>
         <styleUrl>#style_</styleUrl>
         <Point>
           <coordinates>-113.999,45.4017,0</coordinates>
         </Point>
       </Placemark>	
	<Placemark>
         <name>III-IV: Salmon</name>
         <description><![CDATA[<img src="http://www.americanwhitewater.org//logo/AW_logo-Vert3Color_xsmall.gif"> <br> <A HREF="http://www.americanwhitewater.org//content/River/detail/id/612/">AW Page for this reach</A>]]></description>
         <styleUrl>#style_med</styleUrl>
         <Point>
           <coordinates>-114.692,45.3656,0</coordinates>
         </Point>
       </Placemark>	
	<Placemark>
         <name>III-IV: Salmon</name>
         <description><![CDATA[<img src="http://www.americanwhitewater.org//logo/AW_logo-Vert3Color_xsmall.gif"> <br> <A HREF="http://www.americanwhitewater.org//content/River/detail/id/1464/">AW Page for this reach</A>]]></description>
         <styleUrl>#style_med</styleUrl>
         <Point>
           <coordinates>-115.887,45.4606,0</coordinates>
         </Point>
       </Placemark>	
	<Placemark>
         <name>III-IV: Salmon</name>
         <description><![CDATA[<img src="http://www.americanwhitewater.org//logo/AW_logo-Vert3Color_xsmall.gif"> <br> <A HREF="http://www.americanwhitewater.org//content/River/detail/id/613/">AW Page for this reach</A>]]></description>
         <styleUrl>#style_med</styleUrl>
         <Point>
           <coordinates>-116.314,45.4172,0</coordinates>
         </Point>
       </Placemark>	
	<Placemark>
         <name>II-IV: Salmon</name>
         <description><![CDATA[<img src="http://www.americanwhitewater.org//logo/AW_logo-Vert3Color_xsmall.gif"> <br> <A HREF="http://www.americanwhitewater.org//content/River/detail/id/614/">AW Page for this reach</A>]]></description>
         <styleUrl>#style_med</styleUrl>
         <Point>
           <coordinates>-116.327,45.7603,0</coordinates>
         </Point>
       </Placemark>	
	<Placemark>
         <name>IV-V: Secesh</name>
         <description><![CDATA[<img src="http://www.americanwhitewater.org//logo/AW_logo-Vert3Color_xsmall.gif"> <br> <A HREF="http://www.americanwhitewater.org//content/River/detail/id/622/">AW Page for this reach</A>]]></description>
         <styleUrl>#style_low</styleUrl>
         <Point>
           <coordinates>-115.814,45.1722,0</coordinates>
         </Point>
       </Placemark>	
	<Placemark>
         <name>IV: Selway</name>
         <description><![CDATA[<img src="http://www.americanwhitewater.org//logo/AW_logo-Vert3Color_xsmall.gif"> <br> <A HREF="http://www.americanwhitewater.org//content/River/detail/id/623/">AW Page for this reach</A>]]></description>
         <styleUrl>#style_med</styleUrl>
         <Point>
           <coordinates>-114.762,45.8689,0</coordinates>
         </Point>
       </Placemark>	
	<Placemark>
         <name>II-III: Selway</name>
         <description><![CDATA[<img src="http://www.americanwhitewater.org//logo/AW_logo-Vert3Color_xsmall.gif"> <br> <A HREF="http://www.americanwhitewater.org//content/River/detail/id/624/">AW Page for this reach</A>]]></description>
         <styleUrl>#style_med</styleUrl>
         <Point>
           <coordinates>-115.31,46.0541,0</coordinates>
         </Point>
       </Placemark>	
	<Placemark>
         <name>II-V+: Sheep Creek (Bruneau trib)</name>
         <description><![CDATA[<img src="http://www.americanwhitewater.org//logo/AW_logo-Vert3Color_xsmall.gif"> <br> <A HREF="http://www.americanwhitewater.org//content/River/detail/id/625/">AW Page for this reach</A>]]></description>
         <styleUrl>#style_</styleUrl>
         <Point>
           <coordinates>-115.766,42.3297,0</coordinates>
         </Point>
       </Placemark>	
	<Placemark>
         <name>III-IV: Sheep Creek (MF Boise trib)</name>
         <description><![CDATA[<img src="http://www.americanwhitewater.org//logo/AW_logo-Vert3Color_xsmall.gif"> <br> <A HREF="http://www.americanwhitewater.org//content/River/detail/id/1169/">AW Page for this reach</A>]]></description>
         <styleUrl>#style_</styleUrl>
         <Point>
           <coordinates>-115.659,43.6896,0</coordinates>
         </Point>
       </Placemark>	
	<Placemark>
         <name>IV: Skull Creek</name>
         <description><![CDATA[<img src="http://www.americanwhitewater.org//logo/AW_logo-Vert3Color_xsmall.gif"> <br> <A HREF="http://www.americanwhitewater.org//content/River/detail/id/4215/">AW Page for this reach</A>]]></description>
         <styleUrl>#style_</styleUrl>
         <Point>
           <coordinates>-115.429,46.8616,0</coordinates>
         </Point>
       </Placemark>	
	<Placemark>
         <name>IV-V: Slate Creek (Tributary of St. Joe River)</name>
         <description><![CDATA[<img src="http://www.americanwhitewater.org//logo/AW_logo-Vert3Color_xsmall.gif"> <br> <A HREF="http://www.americanwhitewater.org//content/River/detail/id/4153/">AW Page for this reach</A>]]></description>
         <styleUrl>#style_</styleUrl>
         <Point>
           <coordinates>-115.908,47.3374,0</coordinates>
         </Point>
       </Placemark>	
	<Placemark>
         <name>IV-V+: Smith Creek</name>
         <description><![CDATA[<img src="http://www.americanwhitewater.org//logo/AW_logo-Vert3Color_xsmall.gif"> <br> <A HREF="http://www.americanwhitewater.org//content/River/detail/id/627/">AW Page for this reach</A>]]></description>
         <styleUrl>#style_</styleUrl>
         <Point>
           <coordinates>-116.658,48.9306,0</coordinates>
         </Point>
       </Placemark>	
	<Placemark>
         <name>IV-V: Smith Creek</name>
         <description><![CDATA[<img src="http://www.americanwhitewater.org//logo/AW_logo-Vert3Color_xsmall.gif"> <br> <A HREF="http://www.americanwhitewater.org//content/River/detail/id/10542/">AW Page for this reach</A>]]></description>
         <styleUrl>#style_low</styleUrl>
         <Point>
           <coordinates>-116.697,48.8927,0</coordinates>
         </Point>
       </Placemark>	
	<Placemark>
         <name>II: Snake</name>
         <description><![CDATA[<img src="http://www.americanwhitewater.org//logo/AW_logo-Vert3Color_xsmall.gif"> <br> <A HREF="http://www.americanwhitewater.org//content/River/detail/id/635/">AW Page for this reach</A>]]></description>
         <styleUrl>#style_</styleUrl>
         <Point>
           <coordinates>-111.203,43.3373,0</coordinates>
         </Point>
       </Placemark>	
	<Placemark>
         <name>I-III: Snake</name>
         <description><![CDATA[<img src="http://www.americanwhitewater.org//logo/AW_logo-Vert3Color_xsmall.gif"> <br> <A HREF="http://www.americanwhitewater.org//content/River/detail/id/629/">AW Page for this reach</A>]]></description>
         <styleUrl>#style_</styleUrl>
         <Point>
           <coordinates>-112.894,42.7761,0</coordinates>
         </Point>
       </Placemark>	
	<Placemark>
         <name>V+: Snake</name>
         <description><![CDATA[<img src="http://www.americanwhitewater.org//logo/AW_logo-Vert3Color_xsmall.gif"> <br> <A HREF="http://www.americanwhitewater.org//content/River/detail/id/3147/">AW Page for this reach</A>]]></description>
         <styleUrl>#style_low</styleUrl>
         <Point>
           <coordinates>-114.014,42.5258,0</coordinates>
         </Point>
       </Placemark>	
	<Placemark>
         <name>I(II): Snake</name>
         <description><![CDATA[<img src="http://www.americanwhitewater.org//logo/AW_logo-Vert3Color_xsmall.gif"> <br> <A HREF="http://www.americanwhitewater.org//content/River/detail/id/630/">AW Page for this reach</A>]]></description>
         <styleUrl>#style_low</styleUrl>
         <Point>
           <coordinates>-114.011,42.5255,0</coordinates>
         </Point>
       </Placemark>	
	<Placemark>
         <name>III-IV: Snake</name>
         <description><![CDATA[<img src="http://www.americanwhitewater.org//logo/AW_logo-Vert3Color_xsmall.gif"> <br> <A HREF="http://www.americanwhitewater.org//content/River/detail/id/631/">AW Page for this reach</A>]]></description>
         <styleUrl>#style_</styleUrl>
         <Point>
           <coordinates>-114.147,42.4992,0</coordinates>
         </Point>
       </Placemark>	
	<Placemark>
         <name>I-III: Snake</name>
         <description><![CDATA[<img src="http://www.americanwhitewater.org//logo/AW_logo-Vert3Color_xsmall.gif"> <br> <A HREF="http://www.americanwhitewater.org//content/River/detail/id/628/">AW Page for this reach</A>]]></description>
         <styleUrl>#style_</styleUrl>
         <Point>
           <coordinates>-114.642,42.6583,0</coordinates>
         </Point>
       </Placemark>	
	<Placemark>
         <name>II-III: Snake</name>
         <description><![CDATA[<img src="http://www.americanwhitewater.org//logo/AW_logo-Vert3Color_xsmall.gif"> <br> <A HREF="http://www.americanwhitewater.org//content/River/detail/id/632/">AW Page for this reach</A>]]></description>
         <styleUrl>#style_</styleUrl>
         <Point>
           <coordinates>-114.901,42.8431,0</coordinates>
         </Point>
       </Placemark>	
	<Placemark>
         <name>I(II): Snake</name>
         <description><![CDATA[<img src="http://www.americanwhitewater.org//logo/AW_logo-Vert3Color_xsmall.gif"> <br> <A HREF="http://www.americanwhitewater.org//content/River/detail/id/10374/">AW Page for this reach</A>]]></description>
         <styleUrl>#style_</styleUrl>
         <Point>
           <coordinates>-116.38,43.2454,0</coordinates>
         </Point>
       </Placemark>	
	<Placemark>
         <name>III-IV: Snake</name>
         <description><![CDATA[<img src="http://www.americanwhitewater.org//logo/AW_logo-Vert3Color_xsmall.gif"> <br> <A HREF="http://www.americanwhitewater.org//content/River/detail/id/633/">AW Page for this reach</A>]]></description>
         <styleUrl>#style_med</styleUrl>
         <Point>
           <coordinates>-116.697,45.2546,0</coordinates>
         </Point>
       </Placemark>	
	<Placemark>
         <name>II: Snake</name>
         <description><![CDATA[<img src="http://www.americanwhitewater.org//logo/AW_logo-Vert3Color_xsmall.gif"> <br> <A HREF="http://www.americanwhitewater.org//content/River/detail/id/634/">AW Page for this reach</A>]]></description>
         <styleUrl>#style_</styleUrl>
         <Point>
           <coordinates>-116.476,45.6324,0</coordinates>
         </Point>
       </Placemark>	
	<Placemark>
         <name>I-II: Snake</name>
         <description><![CDATA[<img src="http://www.americanwhitewater.org//logo/AW_logo-Vert3Color_xsmall.gif"> <br> <A HREF="http://www.americanwhitewater.org//content/River/detail/id/1557/">AW Page for this reach</A>]]></description>
         <styleUrl>#style_med</styleUrl>
         <Point>
           <coordinates>-116.983,46.086,0</coordinates>
         </Point>
       </Placemark>	
	<Placemark>
         <name>III+: Spokane</name>
         <description><![CDATA[<img src="http://www.americanwhitewater.org//logo/AW_logo-Vert3Color_xsmall.gif"> <br> <A HREF="http://www.americanwhitewater.org//content/River/detail/id/4228/">AW Page for this reach</A>]]></description>
         <styleUrl>#style_med</styleUrl>
         <Point>
           <coordinates>-116.95,47.7023,0</coordinates>
         </Point>
       </Placemark>	
	<Placemark>
         <name>III: St. Joe, N. Fork</name>
         <description><![CDATA[<img src="http://www.americanwhitewater.org//logo/AW_logo-Vert3Color_xsmall.gif"> <br> <A HREF="http://www.americanwhitewater.org//content/River/detail/id/640/">AW Page for this reach</A>]]></description>
         <styleUrl>#style_</styleUrl>
         <Point>
           <coordinates>-115.742,47.3547,0</coordinates>
         </Point>
       </Placemark>	
	<Placemark>
         <name>III-IV: St. Joe</name>
         <description><![CDATA[<img src="http://www.americanwhitewater.org//logo/AW_logo-Vert3Color_xsmall.gif"> <br> <A HREF="http://www.americanwhitewater.org//content/River/detail/id/636/">AW Page for this reach</A>]]></description>
         <styleUrl>#style_med</styleUrl>
         <Point>
           <coordinates>-115.228,47.0586,0</coordinates>
         </Point>
       </Placemark>	
	<Placemark>
         <name>III: St. Joe</name>
         <description><![CDATA[<img src="http://www.americanwhitewater.org//logo/AW_logo-Vert3Color_xsmall.gif"> <br> <A HREF="http://www.americanwhitewater.org//content/River/detail/id/637/">AW Page for this reach</A>]]></description>
         <styleUrl>#style_med</styleUrl>
         <Point>
           <coordinates>-115.355,47.0561,0</coordinates>
         </Point>
       </Placemark>	
	<Placemark>
         <name>III-IV: St. Joe</name>
         <description><![CDATA[<img src="http://www.americanwhitewater.org//logo/AW_logo-Vert3Color_xsmall.gif"> <br> <A HREF="http://www.americanwhitewater.org//content/River/detail/id/639/">AW Page for this reach</A>]]></description>
         <styleUrl>#style_med</styleUrl>
         <Point>
           <coordinates>-115.653,47.2372,0</coordinates>
         </Point>
       </Placemark>	
	<Placemark>
         <name>II-III: St. Maries</name>
         <description><![CDATA[<img src="http://www.americanwhitewater.org//logo/AW_logo-Vert3Color_xsmall.gif"> <br> <A HREF="http://www.americanwhitewater.org//content/River/detail/id/641/">AW Page for this reach</A>]]></description>
         <styleUrl>#style_med</styleUrl>
         <Point>
           <coordinates>-116.423,47.1353,0</coordinates>
         </Point>
       </Placemark>	
	<Placemark>
         <name>IV-V: Teton</name>
         <description><![CDATA[<img src="http://www.americanwhitewater.org//logo/AW_logo-Vert3Color_xsmall.gif"> <br> <A HREF="http://www.americanwhitewater.org//content/River/detail/id/650/">AW Page for this reach</A>]]></description>
         <styleUrl>#style_med</styleUrl>
         <Point>
           <coordinates>-111.251,43.8728,0</coordinates>
         </Point>
       </Placemark>	
	<Placemark>
         <name>II-III: Teton</name>
         <description><![CDATA[<img src="http://www.americanwhitewater.org//logo/AW_logo-Vert3Color_xsmall.gif"> <br> <A HREF="http://www.americanwhitewater.org//content/River/detail/id/643/">AW Page for this reach</A>]]></description>
         <styleUrl>#style_</styleUrl>
         <Point>
           <coordinates>-111.538,43.9097,0</coordinates>
         </Point>
       </Placemark>	
	<Placemark>
         <name>IV-V+: Warm</name>
         <description><![CDATA[<img src="http://www.americanwhitewater.org//logo/AW_logo-Vert3Color_xsmall.gif"> <br> <A HREF="http://www.americanwhitewater.org//content/River/detail/id/644/">AW Page for this reach</A>]]></description>
         <styleUrl>#style_</styleUrl>
         <Point>
           <coordinates>-111.258,44.1928,0</coordinates>
         </Point>
       </Placemark>	
	<Placemark>
         <name>II(IV): Weitas Creek</name>
         <description><![CDATA[<img src="http://www.americanwhitewater.org//logo/AW_logo-Vert3Color_xsmall.gif"> <br> <A HREF="http://www.americanwhitewater.org//content/River/detail/id/3785/">AW Page for this reach</A>]]></description>
         <styleUrl>#style_</styleUrl>
         <Point>
           <coordinates>-115.326,46.4931,0</coordinates>
         </Point>
       </Placemark>	
	<Placemark>
         <name>IV-V: White Sand Creek (Lochsa trib)</name>
         <description><![CDATA[<img src="http://www.americanwhitewater.org//logo/AW_logo-Vert3Color_xsmall.gif"> <br> <A HREF="http://www.americanwhitewater.org//content/River/detail/id/645/">AW Page for this reach</A>]]></description>
         <styleUrl>#style_</styleUrl>
         <Point>
           <coordinates>-114.449,46.4294,0</coordinates>
         </Point>
       </Placemark>	
	<Placemark>
         <name>III-IV: White Sand Creek (Lochsa trib)</name>
         <description><![CDATA[<img src="http://www.americanwhitewater.org//logo/AW_logo-Vert3Color_xsmall.gif"> <br> <A HREF="http://www.americanwhitewater.org//content/River/detail/id/646/">AW Page for this reach</A>]]></description>
         <styleUrl>#style_</styleUrl>
         <Point>
           <coordinates>-114.546,46.4389,0</coordinates>
         </Point>
       </Placemark>	
	<Placemark>
         <name>III-IV: Wildhorse</name>
         <description><![CDATA[<img src="http://www.americanwhitewater.org//logo/AW_logo-Vert3Color_xsmall.gif"> <br> <A HREF="http://www.americanwhitewater.org//content/River/detail/id/647/">AW Page for this reach</A>]]></description>
         <styleUrl>#style_</styleUrl>
         <Point>
           <coordinates>-116.732,44.9625,0</coordinates>
         </Point>
       </Placemark>	
	<Placemark>
         <name>III: Wilson</name>
         <description><![CDATA[<img src="http://www.americanwhitewater.org//logo/AW_logo-Vert3Color_xsmall.gif"> <br> <A HREF="http://www.americanwhitewater.org//content/River/detail/id/648/">AW Page for this reach</A>]]></description>
         <styleUrl>#style_</styleUrl>
         <Point>
           <coordinates>-114.083,42.595,0</coordinates>
         </Point>
       </Placemark></Document></kml>