

<kml xmlns="http://earth.google.com/kml/2.0"><Document><name>AW Rivers</name>	<Style id="style_">
		<IconStyle id="AWicon">
			<color>ff9c9c9c</color>
			<scale>0.6</scale>
			<Icon>
				<href>http://www.americanwhitewater.org//resources/images/maps/unknown.png</href>
			</Icon>
		</IconStyle>
		<LabelStyle>
			<color>ff9c9c9c</color>
		</LabelStyle>
	</Style>	<Style id="style_low">
		<IconStyle id="AWiconlow">
			<color>ff7fa7ff</color>
			<scale>0.6</scale>
			<Icon>
				<href>http://www.americanwhitewater.org//resources/images/maps/low.png</href>
			</Icon>
		</IconStyle>
		<LabelStyle>
			<color>ff7fa7ff</color>
		</LabelStyle>
	</Style>	<Style id="style_med">
		<IconStyle id="AWiconmed">
			<color>ff00ff55</color>
			<scale>0.6</scale>
			<Icon>
				<href>http://www.americanwhitewater.org//resources/images/maps/running.png</href>
			</Icon>
		</IconStyle>
		<LabelStyle>
			<color>ff00ff55</color>
		</LabelStyle>
	</Style>	<Style id="style_high">
		<IconStyle id="AWiconhigh">
			<color>ffffc500</color>
			<scale>0.6</scale>
			<Icon>
				<href>http://www.americanwhitewater.org//resources/images/maps/high.png</href>
			</Icon>
		</IconStyle>
		<LabelStyle>
			<color>ffffc500</color>
		</LabelStyle>
	</Style>	
	<Placemark>
         <name>V: Ammonoosuc</name>
         <description><![CDATA[<img src="http://www.americanwhitewater.org//logo/AW_logo-Vert3Color_xsmall.gif"> <br> <A HREF="http://www.americanwhitewater.org//content/River/detail/id/4113/">AW Page for this reach</A>]]></description>
         <styleUrl>#style_</styleUrl>
         <Point>
           <coordinates>-71.4168,44.2663,0</coordinates>
         </Point>
       </Placemark>	
	<Placemark>
         <name>I-II: Ammonoosuc</name>
         <description><![CDATA[<img src="http://www.americanwhitewater.org//logo/AW_logo-Vert3Color_xsmall.gif"> <br> <A HREF="http://www.americanwhitewater.org//content/River/detail/id/4003/">AW Page for this reach</A>]]></description>
         <styleUrl>#style_low</styleUrl>
         <Point>
           <coordinates>-71.7834,44.3076,0</coordinates>
         </Point>
       </Placemark>	
	<Placemark>
         <name>II-III: Ammonoosuc</name>
         <description><![CDATA[<img src="http://www.americanwhitewater.org//logo/AW_logo-Vert3Color_xsmall.gif"> <br> <A HREF="http://www.americanwhitewater.org//content/River/detail/id/1154/">AW Page for this reach</A>]]></description>
         <styleUrl>#style_med</styleUrl>
         <Point>
           <coordinates>-71.4377,44.2545,0</coordinates>
         </Point>
       </Placemark>	
	<Placemark>
         <name>II-III: Ammonoosuc</name>
         <description><![CDATA[<img src="http://www.americanwhitewater.org//logo/AW_logo-Vert3Color_xsmall.gif"> <br> <A HREF="http://www.americanwhitewater.org//content/River/detail/id/1155/">AW Page for this reach</A>]]></description>
         <styleUrl>#style_low</styleUrl>
         <Point>
           <coordinates>-71.5882,44.2743,0</coordinates>
         </Point>
       </Placemark>	
	<Placemark>
         <name>II-IV: Ammonoosuc</name>
         <description><![CDATA[<img src="http://www.americanwhitewater.org//logo/AW_logo-Vert3Color_xsmall.gif"> <br> <A HREF="http://www.americanwhitewater.org//content/River/detail/id/3689/">AW Page for this reach</A>]]></description>
         <styleUrl>#style_low</styleUrl>
         <Point>
           <coordinates>-71.5882,44.2743,0</coordinates>
         </Point>
       </Placemark>	
	<Placemark>
         <name>II: Androscoggin</name>
         <description><![CDATA[<img src="http://www.americanwhitewater.org//logo/AW_logo-Vert3Color_xsmall.gif"> <br> <A HREF="http://www.americanwhitewater.org//content/River/detail/id/3736/">AW Page for this reach</A>]]></description>
         <styleUrl>#style_med</styleUrl>
         <Point>
           <coordinates>-71.1292,44.7854,0</coordinates>
         </Point>
       </Placemark>	
	<Placemark>
         <name>I-II: Androscoggin</name>
         <description><![CDATA[<img src="http://www.americanwhitewater.org//logo/AW_logo-Vert3Color_xsmall.gif"> <br> <A HREF="http://www.americanwhitewater.org//content/River/detail/id/758/">AW Page for this reach</A>]]></description>
         <styleUrl>#style_med</styleUrl>
         <Point>
           <coordinates>-71.1351,44.7789,0</coordinates>
         </Point>
       </Placemark>	
	<Placemark>
         <name>II: Androscoggin</name>
         <description><![CDATA[<img src="http://www.americanwhitewater.org//logo/AW_logo-Vert3Color_xsmall.gif"> <br> <A HREF="http://www.americanwhitewater.org//content/River/detail/id/3686/">AW Page for this reach</A>]]></description>
         <styleUrl>#style_</styleUrl>
         <Point>
           <coordinates>-71.2499,44.633,0</coordinates>
         </Point>
       </Placemark>	
	<Placemark>
         <name>III-IV: Ashuelot, S. Branch</name>
         <description><![CDATA[<img src="http://www.americanwhitewater.org//logo/AW_logo-Vert3Color_xsmall.gif"> <br> <A HREF="http://www.americanwhitewater.org//content/River/detail/id/1161/">AW Page for this reach</A>]]></description>
         <styleUrl>#style_</styleUrl>
         <Point>
           <coordinates>-72.1919,42.8451,0</coordinates>
         </Point>
       </Placemark>	
	<Placemark>
         <name>III-IV: Ashuelot</name>
         <description><![CDATA[<img src="http://www.americanwhitewater.org//logo/AW_logo-Vert3Color_xsmall.gif"> <br> <A HREF="http://www.americanwhitewater.org//content/River/detail/id/1159/">AW Page for this reach</A>]]></description>
         <styleUrl>#style_low</styleUrl>
         <Point>
           <coordinates>-72.2105,43.0794,0</coordinates>
         </Point>
       </Placemark>	
	<Placemark>
         <name>II: Ashuelot</name>
         <description><![CDATA[<img src="http://www.americanwhitewater.org//logo/AW_logo-Vert3Color_xsmall.gif"> <br> <A HREF="http://www.americanwhitewater.org//content/River/detail/id/1160/">AW Page for this reach</A>]]></description>
         <styleUrl>#style_low</styleUrl>
         <Point>
           <coordinates>-72.2704,43.0389,0</coordinates>
         </Point>
       </Placemark>	
	<Placemark>
         <name>II-IV: Ashuelot</name>
         <description><![CDATA[<img src="http://www.americanwhitewater.org//logo/AW_logo-Vert3Color_xsmall.gif"> <br> <A HREF="http://www.americanwhitewater.org//content/River/detail/id/1158/">AW Page for this reach</A>]]></description>
         <styleUrl>#style_med</styleUrl>
         <Point>
           <coordinates>-72.424,42.7771,0</coordinates>
         </Point>
       </Placemark>	
	<Placemark>
         <name>I(V): Atlantic Ocean</name>
         <description><![CDATA[<img src="http://www.americanwhitewater.org//logo/AW_logo-Vert3Color_xsmall.gif"> <br> <A HREF="http://www.americanwhitewater.org//content/River/detail/id/4184/">AW Page for this reach</A>]]></description>
         <styleUrl>#style_</styleUrl>
         <Point>
           <coordinates>-70.759,42.9896,0</coordinates>
         </Point>
       </Placemark>	
	<Placemark>
         <name>V: Baker, S. Branch</name>
         <description><![CDATA[<img src="http://www.americanwhitewater.org//logo/AW_logo-Vert3Color_xsmall.gif"> <br> <A HREF="http://www.americanwhitewater.org//content/River/detail/id/2980/">AW Page for this reach</A>]]></description>
         <styleUrl>#style_low</styleUrl>
         <Point>
           <coordinates>-71.9467,43.8142,0</coordinates>
         </Point>
       </Placemark>	
	<Placemark>
         <name>V: Baker</name>
         <description><![CDATA[<img src="http://www.americanwhitewater.org//logo/AW_logo-Vert3Color_xsmall.gif"> <br> <A HREF="http://www.americanwhitewater.org//content/River/detail/id/2981/">AW Page for this reach</A>]]></description>
         <styleUrl>#style_low</styleUrl>
         <Point>
           <coordinates>-71.8254,43.9636,0</coordinates>
         </Point>
       </Placemark>	
	<Placemark>
         <name>II-III: Baker</name>
         <description><![CDATA[<img src="http://www.americanwhitewater.org//logo/AW_logo-Vert3Color_xsmall.gif"> <br> <A HREF="http://www.americanwhitewater.org//content/River/detail/id/3059/">AW Page for this reach</A>]]></description>
         <styleUrl>#style_med</styleUrl>
         <Point>
           <coordinates>-71.8783,43.9394,0</coordinates>
         </Point>
       </Placemark>	
	<Placemark>
         <name>II-IV: Bearcamp</name>
         <description><![CDATA[<img src="http://www.americanwhitewater.org//logo/AW_logo-Vert3Color_xsmall.gif"> <br> <A HREF="http://www.americanwhitewater.org//content/River/detail/id/1162/">AW Page for this reach</A>]]></description>
         <styleUrl>#style_low</styleUrl>
         <Point>
           <coordinates>-71.3291,43.8301,0</coordinates>
         </Point>
       </Placemark>	
	<Placemark>
         <name>II-IV: Beebe</name>
         <description><![CDATA[<img src="http://www.americanwhitewater.org//logo/AW_logo-Vert3Color_xsmall.gif"> <br> <A HREF="http://www.americanwhitewater.org//content/River/detail/id/3740/">AW Page for this reach</A>]]></description>
         <styleUrl>#style_</styleUrl>
         <Point>
           <coordinates>-71.5345,43.8429,0</coordinates>
         </Point>
       </Placemark>	
	<Placemark>
         <name>II-IV: Blackwater</name>
         <description><![CDATA[<img src="http://www.americanwhitewater.org//logo/AW_logo-Vert3Color_xsmall.gif"> <br> <A HREF="http://www.americanwhitewater.org//content/River/detail/id/1163/">AW Page for this reach</A>]]></description>
         <styleUrl>#style_</styleUrl>
         <Point>
           <coordinates>-71.6987,43.3014,0</coordinates>
         </Point>
       </Placemark>	
	<Placemark>
         <name>V: Bloods Brook</name>
         <description><![CDATA[<img src="http://www.americanwhitewater.org//logo/AW_logo-Vert3Color_xsmall.gif"> <br> <A HREF="http://www.americanwhitewater.org//content/River/detail/id/3242/">AW Page for this reach</A>]]></description>
         <styleUrl>#style_</styleUrl>
         <Point>
           <coordinates>-72.3147,43.6052,0</coordinates>
         </Point>
       </Placemark>	
	<Placemark>
         <name>II-V: Branch Brook</name>
         <description><![CDATA[<img src="http://www.americanwhitewater.org//logo/AW_logo-Vert3Color_xsmall.gif"> <br> <A HREF="http://www.americanwhitewater.org//content/River/detail/id/4017/">AW Page for this reach</A>]]></description>
         <styleUrl>#style_</styleUrl>
         <Point>
           <coordinates>-71.7061,43.8789,0</coordinates>
         </Point>
       </Placemark>	
	<Placemark>
         <name>IV+: Broad Brook</name>
         <description><![CDATA[<img src="http://www.americanwhitewater.org//logo/AW_logo-Vert3Color_xsmall.gif"> <br> <A HREF="http://www.americanwhitewater.org//content/River/detail/id/4487/">AW Page for this reach</A>]]></description>
         <styleUrl>#style_low</styleUrl>
         <Point>
           <coordinates>-72.4267,42.7975,0</coordinates>
         </Point>
       </Placemark>	
	<Placemark>
         <name>V: Cascade Brook</name>
         <description><![CDATA[<img src="http://www.americanwhitewater.org//logo/AW_logo-Vert3Color_xsmall.gif"> <br> <A HREF="http://www.americanwhitewater.org//content/River/detail/id/2982/">AW Page for this reach</A>]]></description>
         <styleUrl>#style_low</styleUrl>
         <Point>
           <coordinates>-71.6986,44.1262,0</coordinates>
         </Point>
       </Placemark>	
	<Placemark>
         <name>II(IV): Cocheco</name>
         <description><![CDATA[<img src="http://www.americanwhitewater.org//logo/AW_logo-Vert3Color_xsmall.gif"> <br> <A HREF="http://www.americanwhitewater.org//content/River/detail/id/4604/">AW Page for this reach</A>]]></description>
         <styleUrl>#style_med</styleUrl>
         <Point>
           <coordinates>-70.9227,43.2138,0</coordinates>
         </Point>
       </Placemark>	
	<Placemark>
         <name>V: Cold Brook</name>
         <description><![CDATA[<img src="http://www.americanwhitewater.org//logo/AW_logo-Vert3Color_xsmall.gif"> <br> <A HREF="http://www.americanwhitewater.org//content/River/detail/id/3283/">AW Page for this reach</A>]]></description>
         <styleUrl>#style_</styleUrl>
         <Point>
           <coordinates>-71.2973,43.816,0</coordinates>
         </Point>
       </Placemark>	
	<Placemark>
         <name>II: Cold</name>
         <description><![CDATA[<img src="http://www.americanwhitewater.org//logo/AW_logo-Vert3Color_xsmall.gif"> <br> <A HREF="http://www.americanwhitewater.org//content/River/detail/id/1164/">AW Page for this reach</A>]]></description>
         <styleUrl>#style_</styleUrl>
         <Point>
           <coordinates>-72.2867,43.19,0</coordinates>
         </Point>
       </Placemark>	
	<Placemark>
         <name>III-IV: Cold</name>
         <description><![CDATA[<img src="http://www.americanwhitewater.org//logo/AW_logo-Vert3Color_xsmall.gif"> <br> <A HREF="http://www.americanwhitewater.org//content/River/detail/id/1165/">AW Page for this reach</A>]]></description>
         <styleUrl>#style_</styleUrl>
         <Point>
           <coordinates>-72.3485,43.1538,0</coordinates>
         </Point>
       </Placemark>	
	<Placemark>
         <name>II: Cold</name>
         <description><![CDATA[<img src="http://www.americanwhitewater.org//logo/AW_logo-Vert3Color_xsmall.gif"> <br> <A HREF="http://www.americanwhitewater.org//content/River/detail/id/1166/">AW Page for this reach</A>]]></description>
         <styleUrl>#style_</styleUrl>
         <Point>
           <coordinates>-72.3612,43.1495,0</coordinates>
         </Point>
       </Placemark>	
	<Placemark>
         <name>III-IV(V): Connecticut</name>
         <description><![CDATA[<img src="http://www.americanwhitewater.org//logo/AW_logo-Vert3Color_xsmall.gif"> <br> <A HREF="http://www.americanwhitewater.org//content/River/detail/id/10545/">AW Page for this reach</A>]]></description>
         <styleUrl>#style_med</styleUrl>
         <Point>
           <coordinates>-71.3908,45.0494,0</coordinates>
         </Point>
       </Placemark>	
	<Placemark>
         <name>I-III: Connecticut</name>
         <description><![CDATA[<img src="http://www.americanwhitewater.org//logo/AW_logo-Vert3Color_xsmall.gif"> <br> <A HREF="http://www.americanwhitewater.org//content/River/detail/id/3606/">AW Page for this reach</A>]]></description>
         <styleUrl>#style_med</styleUrl>
         <Point>
           <coordinates>-72.3811,43.5644,0</coordinates>
         </Point>
       </Placemark>	
	<Placemark>
         <name>V: Contoocook, N. Branch</name>
         <description><![CDATA[<img src="http://www.americanwhitewater.org//logo/AW_logo-Vert3Color_xsmall.gif"> <br> <A HREF="http://www.americanwhitewater.org//content/River/detail/id/1170/">AW Page for this reach</A>]]></description>
         <styleUrl>#style_low</styleUrl>
         <Point>
           <coordinates>-72.0606,43.0509,0</coordinates>
         </Point>
       </Placemark>	
	<Placemark>
         <name>II: Contoocook</name>
         <description><![CDATA[<img src="http://www.americanwhitewater.org//logo/AW_logo-Vert3Color_xsmall.gif"> <br> <A HREF="http://www.americanwhitewater.org//content/River/detail/id/1168/">AW Page for this reach</A>]]></description>
         <styleUrl>#style_low</styleUrl>
         <Point>
           <coordinates>-72.0161,42.815,0</coordinates>
         </Point>
       </Placemark>	
	<Placemark>
         <name>III-IV: Contoocook</name>
         <description><![CDATA[<img src="http://www.americanwhitewater.org//logo/AW_logo-Vert3Color_xsmall.gif"> <br> <A HREF="http://www.americanwhitewater.org//content/River/detail/id/1167/">AW Page for this reach</A>]]></description>
         <styleUrl>#style_med</styleUrl>
         <Point>
           <coordinates>-71.8702,43.1441,0</coordinates>
         </Point>
       </Placemark>	
	<Placemark>
         <name>II(III): Contoocook</name>
         <description><![CDATA[<img src="http://www.americanwhitewater.org//logo/AW_logo-Vert3Color_xsmall.gif"> <br> <A HREF="http://www.americanwhitewater.org//content/River/detail/id/3688/">AW Page for this reach</A>]]></description>
         <styleUrl>#style_med</styleUrl>
         <Point>
           <coordinates>-71.842,43.1696,0</coordinates>
         </Point>
       </Placemark>	
	<Placemark>
         <name>II-III: Croyden Brook</name>
         <description><![CDATA[<img src="http://www.americanwhitewater.org//logo/AW_logo-Vert3Color_xsmall.gif"> <br> <A HREF="http://www.americanwhitewater.org//content/River/detail/id/4013/">AW Page for this reach</A>]]></description>
         <styleUrl>#style_low</styleUrl>
         <Point>
           <coordinates>-72.1648,43.4306,0</coordinates>
         </Point>
       </Placemark>	
	<Placemark>
         <name>III-IV: Diamond River</name>
         <description><![CDATA[<img src="http://www.americanwhitewater.org//logo/AW_logo-Vert3Color_xsmall.gif"> <br> <A HREF="http://www.americanwhitewater.org//content/River/detail/id/4067/">AW Page for this reach</A>]]></description>
         <styleUrl>#style_med</styleUrl>
         <Point>
           <coordinates>-71.1118,44.878,0</coordinates>
         </Point>
       </Placemark>	
	<Placemark>
         <name>V: Dry</name>
         <description><![CDATA[<img src="http://www.americanwhitewater.org//logo/AW_logo-Vert3Color_xsmall.gif"> <br> <A HREF="http://www.americanwhitewater.org//content/River/detail/id/2983/">AW Page for this reach</A>]]></description>
         <styleUrl>#style_low</styleUrl>
         <Point>
           <coordinates>-71.3515,44.1793,0</coordinates>
         </Point>
       </Placemark>	
	<Placemark>
         <name>IV-V: East Branch Saco</name>
         <description><![CDATA[<img src="http://www.americanwhitewater.org//logo/AW_logo-Vert3Color_xsmall.gif"> <br> <A HREF="http://www.americanwhitewater.org//content/River/detail/id/3724/">AW Page for this reach</A>]]></description>
         <styleUrl>#style_</styleUrl>
         <Point>
           <coordinates>-71.1302,44.1217,0</coordinates>
         </Point>
       </Placemark>	
	<Placemark>
         <name>III-IV: Ellis</name>
         <description><![CDATA[<img src="http://www.americanwhitewater.org//logo/AW_logo-Vert3Color_xsmall.gif"> <br> <A HREF="http://www.americanwhitewater.org//content/River/detail/id/1171/">AW Page for this reach</A>]]></description>
         <styleUrl>#style_</styleUrl>
         <Point>
           <coordinates>-71.2287,44.187,0</coordinates>
         </Point>
       </Placemark>	
	<Placemark>
         <name>V: Fowler</name>
         <description><![CDATA[<img src="http://www.americanwhitewater.org//logo/AW_logo-Vert3Color_xsmall.gif"> <br> <A HREF="http://www.americanwhitewater.org//content/River/detail/id/2984/">AW Page for this reach</A>]]></description>
         <styleUrl>#style_low</styleUrl>
         <Point>
           <coordinates>-71.8565,43.639,0</coordinates>
         </Point>
       </Placemark>	
	<Placemark>
         <name>II-IV: Gale</name>
         <description><![CDATA[<img src="http://www.americanwhitewater.org//logo/AW_logo-Vert3Color_xsmall.gif"> <br> <A HREF="http://www.americanwhitewater.org//content/River/detail/id/1172/">AW Page for this reach</A>]]></description>
         <styleUrl>#style_</styleUrl>
         <Point>
           <coordinates>-71.7855,44.2478,0</coordinates>
         </Point>
       </Placemark>	
	<Placemark>
         <name>V: Glover Brook</name>
         <description><![CDATA[<img src="http://www.americanwhitewater.org//logo/AW_logo-Vert3Color_xsmall.gif"> <br> <A HREF="http://www.americanwhitewater.org//content/River/detail/id/2985/">AW Page for this reach</A>]]></description>
         <styleUrl>#style_</styleUrl>
         <Point>
           <coordinates>-71.7332,43.979,0</coordinates>
         </Point>
       </Placemark>	
	<Placemark>
         <name>V: Halls Brook</name>
         <description><![CDATA[<img src="http://www.americanwhitewater.org//logo/AW_logo-Vert3Color_xsmall.gif"> <br> <A HREF="http://www.americanwhitewater.org//content/River/detail/id/2960/">AW Page for this reach</A>]]></description>
         <styleUrl>#style_low</styleUrl>
         <Point>
           <coordinates>-71.8513,43.767,0</coordinates>
         </Point>
       </Placemark>	
	<Placemark>
         <name>II: Israel River</name>
         <description><![CDATA[<img src="http://www.americanwhitewater.org//logo/AW_logo-Vert3Color_xsmall.gif"> <br> <A HREF="http://www.americanwhitewater.org//content/River/detail/id/3721/">AW Page for this reach</A>]]></description>
         <styleUrl>#style_</styleUrl>
         <Point>
           <coordinates>-71.5278,44.4448,0</coordinates>
         </Point>
       </Placemark>	
	<Placemark>
         <name>IV(V): Kimpton Brook</name>
         <description><![CDATA[<img src="http://www.americanwhitewater.org//logo/AW_logo-Vert3Color_xsmall.gif"> <br> <A HREF="http://www.americanwhitewater.org//content/River/detail/id/10509/">AW Page for this reach</A>]]></description>
         <styleUrl>#style_</styleUrl>
         <Point>
           <coordinates>-71.9757,43.483,0</coordinates>
         </Point>
       </Placemark>	
	<Placemark>
         <name>IV: Lamprey</name>
         <description><![CDATA[<img src="http://www.americanwhitewater.org//logo/AW_logo-Vert3Color_xsmall.gif"> <br> <A HREF="http://www.americanwhitewater.org//content/River/detail/id/4603/">AW Page for this reach</A>]]></description>
         <styleUrl>#style_low</styleUrl>
         <Point>
           <coordinates>-71.2338,43.1508,0</coordinates>
         </Point>
       </Placemark>	
	<Placemark>
         <name>IV: Little Suncook</name>
         <description><![CDATA[<img src="http://www.americanwhitewater.org//logo/AW_logo-Vert3Color_xsmall.gif"> <br> <A HREF="http://www.americanwhitewater.org//content/River/detail/id/3725/">AW Page for this reach</A>]]></description>
         <styleUrl>#style_</styleUrl>
         <Point>
           <coordinates>-71.2913,43.2201,0</coordinates>
         </Point>
       </Placemark>	
	<Placemark>
         <name>IV-V: Lovell</name>
         <description><![CDATA[<img src="http://www.americanwhitewater.org//logo/AW_logo-Vert3Color_xsmall.gif"> <br> <A HREF="http://www.americanwhitewater.org//content/River/detail/id/3731/">AW Page for this reach</A>]]></description>
         <styleUrl>#style_</styleUrl>
         <Point>
           <coordinates>-71.2521,43.771,0</coordinates>
         </Point>
       </Placemark>	
	<Placemark>
         <name>III-IV: Mad</name>
         <description><![CDATA[<img src="http://www.americanwhitewater.org//logo/AW_logo-Vert3Color_xsmall.gif"> <br> <A HREF="http://www.americanwhitewater.org//content/River/detail/id/1173/">AW Page for this reach</A>]]></description>
         <styleUrl>#style_</styleUrl>
         <Point>
           <coordinates>-71.5097,43.946,0</coordinates>
         </Point>
       </Placemark>	
	<Placemark>
         <name>III: Mad</name>
         <description><![CDATA[<img src="http://www.americanwhitewater.org//logo/AW_logo-Vert3Color_xsmall.gif"> <br> <A HREF="http://www.americanwhitewater.org//content/River/detail/id/3668/">AW Page for this reach</A>]]></description>
         <styleUrl>#style_</styleUrl>
         <Point>
           <coordinates>-71.6322,43.8615,0</coordinates>
         </Point>
       </Placemark>	
	<Placemark>
         <name>II-III(IV): Mascoma</name>
         <description><![CDATA[<img src="http://www.americanwhitewater.org//logo/AW_logo-Vert3Color_xsmall.gif"> <br> <A HREF="http://www.americanwhitewater.org//content/River/detail/id/1174/">AW Page for this reach</A>]]></description>
         <styleUrl>#style_</styleUrl>
         <Point>
           <coordinates>-72.1819,43.648,0</coordinates>
         </Point>
       </Placemark>	
	<Placemark>
         <name>V: Mascoma</name>
         <description><![CDATA[<img src="http://www.americanwhitewater.org//logo/AW_logo-Vert3Color_xsmall.gif"> <br> <A HREF="http://www.americanwhitewater.org//content/River/detail/id/3243/">AW Page for this reach</A>]]></description>
         <styleUrl>#style_</styleUrl>
         <Point>
           <coordinates>-72.2192,43.6401,0</coordinates>
         </Point>
       </Placemark>	
	<Placemark>
         <name>I-II+(III): Merrimack</name>
         <description><![CDATA[<img src="http://www.americanwhitewater.org//logo/AW_logo-Vert3Color_xsmall.gif"> <br> <A HREF="http://www.americanwhitewater.org//content/River/detail/id/1175/">AW Page for this reach</A>]]></description>
         <styleUrl>#style_med</styleUrl>
         <Point>
           <coordinates>-71.4736,43.0022,0</coordinates>
         </Point>
       </Placemark>	
	<Placemark>
         <name>I: Merrimack</name>
         <description><![CDATA[<img src="http://www.americanwhitewater.org//logo/AW_logo-Vert3Color_xsmall.gif"> <br> <A HREF="http://www.americanwhitewater.org//content/River/detail/id/3786/">AW Page for this reach</A>]]></description>
         <styleUrl>#style_med</styleUrl>
         <Point>
           <coordinates>-71.6533,43.4395,0</coordinates>
         </Point>
       </Placemark>	
	<Placemark>
         <name>II-IV: Minnewawa</name>
         <description><![CDATA[<img src="http://www.americanwhitewater.org//logo/AW_logo-Vert3Color_xsmall.gif"> <br> <A HREF="http://www.americanwhitewater.org//content/River/detail/id/3837/">AW Page for this reach</A>]]></description>
         <styleUrl>#style_</styleUrl>
         <Point>
           <coordinates>-72.1892,42.9144,0</coordinates>
         </Point>
       </Placemark>	
	<Placemark>
         <name>II-III: Mohawk</name>
         <description><![CDATA[<img src="http://www.americanwhitewater.org//logo/AW_logo-Vert3Color_xsmall.gif"> <br> <A HREF="http://www.americanwhitewater.org//content/River/detail/id/3915/">AW Page for this reach</A>]]></description>
         <styleUrl>#style_</styleUrl>
         <Point>
           <coordinates>-71.3309,44.8675,0</coordinates>
         </Point>
       </Placemark>	
	<Placemark>
         <name>II-III: Nashua</name>
         <description><![CDATA[<img src="http://www.americanwhitewater.org//logo/AW_logo-Vert3Color_xsmall.gif"> <br> <A HREF="http://www.americanwhitewater.org//content/River/detail/id/6812/">AW Page for this reach</A>]]></description>
         <styleUrl>#style_low</styleUrl>
         <Point>
           <coordinates>-71.5499,42.7122,0</coordinates>
         </Point>
       </Placemark>	
	<Placemark>
         <name>II-III+: Newfound River</name>
         <description><![CDATA[<img src="http://www.americanwhitewater.org//logo/AW_logo-Vert3Color_xsmall.gif"> <br> <A HREF="http://www.americanwhitewater.org//content/River/detail/id/3835/">AW Page for this reach</A>]]></description>
         <styleUrl>#style_</styleUrl>
         <Point>
           <coordinates>-71.7407,43.6173,0</coordinates>
         </Point>
       </Placemark>	
	<Placemark>
         <name>II: North</name>
         <description><![CDATA[<img src="http://www.americanwhitewater.org//logo/AW_logo-Vert3Color_xsmall.gif"> <br> <A HREF="http://www.americanwhitewater.org//content/River/detail/id/4445/">AW Page for this reach</A>]]></description>
         <styleUrl>#style_</styleUrl>
         <Point>
           <coordinates>-71.1028,43.1187,0</coordinates>
         </Point>
       </Placemark>	
	<Placemark>
         <name>I-II: Ossipee</name>
         <description><![CDATA[<img src="http://www.americanwhitewater.org//logo/AW_logo-Vert3Color_xsmall.gif"> <br> <A HREF="http://www.americanwhitewater.org//content/River/detail/id/3836/">AW Page for this reach</A>]]></description>
         <styleUrl>#style_</styleUrl>
         <Point>
           <coordinates>-71.0602,43.7943,0</coordinates>
         </Point>
       </Placemark>	
	<Placemark>
         <name>III-IV: Otter Brook</name>
         <description><![CDATA[<img src="http://www.americanwhitewater.org//logo/AW_logo-Vert3Color_xsmall.gif"> <br> <A HREF="http://www.americanwhitewater.org//content/River/detail/id/1176/">AW Page for this reach</A>]]></description>
         <styleUrl>#style_low</styleUrl>
         <Point>
           <coordinates>-72.1943,42.9929,0</coordinates>
         </Point>
       </Placemark>	
	<Placemark>
         <name>II: Otter Brook</name>
         <description><![CDATA[<img src="http://www.americanwhitewater.org//logo/AW_logo-Vert3Color_xsmall.gif"> <br> <A HREF="http://www.americanwhitewater.org//content/River/detail/id/3644/">AW Page for this reach</A>]]></description>
         <styleUrl>#style_med</styleUrl>
         <Point>
           <coordinates>-72.2388,42.9439,0</coordinates>
         </Point>
       </Placemark>	
	<Placemark>
         <name>V: Peabody, W. Br.</name>
         <description><![CDATA[<img src="http://www.americanwhitewater.org//logo/AW_logo-Vert3Color_xsmall.gif"> <br> <A HREF="http://www.americanwhitewater.org//content/River/detail/id/2987/">AW Page for this reach</A>]]></description>
         <styleUrl>#style_</styleUrl>
         <Point>
           <coordinates>-71.28,44.3027,0</coordinates>
         </Point>
       </Placemark>	
	<Placemark>
         <name>IV: Peabody</name>
         <description><![CDATA[<img src="http://www.americanwhitewater.org//logo/AW_logo-Vert3Color_xsmall.gif"> <br> <A HREF="http://www.americanwhitewater.org//content/River/detail/id/1177/">AW Page for this reach</A>]]></description>
         <styleUrl>#style_</styleUrl>
         <Point>
           <coordinates>-71.2138,44.33,0</coordinates>
         </Point>
       </Placemark>	
	<Placemark>
         <name>IV: Pemigewasset, East Branch</name>
         <description><![CDATA[<img src="http://www.americanwhitewater.org//logo/AW_logo-Vert3Color_xsmall.gif"> <br> <A HREF="http://www.americanwhitewater.org//content/River/detail/id/1179/">AW Page for this reach</A>]]></description>
         <styleUrl>#style_med</styleUrl>
         <Point>
           <coordinates>-71.5725,44.1012,0</coordinates>
         </Point>
       </Placemark>	
	<Placemark>
         <name>V: Pemigewasset, Hancock Branch</name>
         <description><![CDATA[<img src="http://www.americanwhitewater.org//logo/AW_logo-Vert3Color_xsmall.gif"> <br> <A HREF="http://www.americanwhitewater.org//content/River/detail/id/2986/">AW Page for this reach</A>]]></description>
         <styleUrl>#style_low</styleUrl>
         <Point>
           <coordinates>-71.5295,44.0351,0</coordinates>
         </Point>
       </Placemark>	
	<Placemark>
         <name>IV-V: Pemigewasset, North Fork.</name>
         <description><![CDATA[<img src="http://www.americanwhitewater.org//logo/AW_logo-Vert3Color_xsmall.gif"> <br> <A HREF="http://www.americanwhitewater.org//content/River/detail/id/2988/">AW Page for this reach</A>]]></description>
         <styleUrl>#style_low</styleUrl>
         <Point>
           <coordinates>-71.4297,44.1761,0</coordinates>
         </Point>
       </Placemark>	
	<Placemark>
         <name>V: Pemigewasset</name>
         <description><![CDATA[<img src="http://www.americanwhitewater.org//logo/AW_logo-Vert3Color_xsmall.gif"> <br> <A HREF="http://www.americanwhitewater.org//content/River/detail/id/2989/">AW Page for this reach</A>]]></description>
         <styleUrl>#style_low</styleUrl>
         <Point>
           <coordinates>-71.6835,44.1235,0</coordinates>
         </Point>
       </Placemark>	
	<Placemark>
         <name>II-IV: Pemigewasset</name>
         <description><![CDATA[<img src="http://www.americanwhitewater.org//logo/AW_logo-Vert3Color_xsmall.gif"> <br> <A HREF="http://www.americanwhitewater.org//content/River/detail/id/3712/">AW Page for this reach</A>]]></description>
         <styleUrl>#style_low</styleUrl>
         <Point>
           <coordinates>-71.684,44.0803,0</coordinates>
         </Point>
       </Placemark>	
	<Placemark>
         <name>II: Pemigewasset</name>
         <description><![CDATA[<img src="http://www.americanwhitewater.org//logo/AW_logo-Vert3Color_xsmall.gif"> <br> <A HREF="http://www.americanwhitewater.org//content/River/detail/id/3645/">AW Page for this reach</A>]]></description>
         <styleUrl>#style_med</styleUrl>
         <Point>
           <coordinates>-71.6841,44.0263,0</coordinates>
         </Point>
       </Placemark>	
	<Placemark>
         <name>I: Pemigewasset</name>
         <description><![CDATA[<img src="http://www.americanwhitewater.org//logo/AW_logo-Vert3Color_xsmall.gif"> <br> <A HREF="http://www.americanwhitewater.org//content/River/detail/id/3735/">AW Page for this reach</A>]]></description>
         <styleUrl>#style_med</styleUrl>
         <Point>
           <coordinates>-71.681,43.9748,0</coordinates>
         </Point>
       </Placemark>	
	<Placemark>
         <name>II(III): Pemigewasset</name>
         <description><![CDATA[<img src="http://www.americanwhitewater.org//logo/AW_logo-Vert3Color_xsmall.gif"> <br> <A HREF="http://www.americanwhitewater.org//content/River/detail/id/1178/">AW Page for this reach</A>]]></description>
         <styleUrl>#style_med</styleUrl>
         <Point>
           <coordinates>-71.7195,43.598,0</coordinates>
         </Point>
       </Placemark>	
	<Placemark>
         <name>III: Phillips Brook</name>
         <description><![CDATA[<img src="http://www.americanwhitewater.org//logo/AW_logo-Vert3Color_xsmall.gif"> <br> <A HREF="http://www.americanwhitewater.org//content/River/detail/id/3739/">AW Page for this reach</A>]]></description>
         <styleUrl>#style_</styleUrl>
         <Point>
           <coordinates>-71.3381,44.6108,0</coordinates>
         </Point>
       </Placemark>	
	<Placemark>
         <name>II-IV: Piscataquog, North Branch</name>
         <description><![CDATA[<img src="http://www.americanwhitewater.org//logo/AW_logo-Vert3Color_xsmall.gif"> <br> <A HREF="http://www.americanwhitewater.org//content/River/detail/id/4476/">AW Page for this reach</A>]]></description>
         <styleUrl>#style_low</styleUrl>
         <Point>
           <coordinates>-71.771,43.1078,0</coordinates>
         </Point>
       </Placemark>	
	<Placemark>
         <name>I-II: Piscataquog, S. Branch</name>
         <description><![CDATA[<img src="http://www.americanwhitewater.org//logo/AW_logo-Vert3Color_xsmall.gif"> <br> <A HREF="http://www.americanwhitewater.org//content/River/detail/id/1181/">AW Page for this reach</A>]]></description>
         <styleUrl>#style_</styleUrl>
         <Point>
           <coordinates>-71.6967,42.9698,0</coordinates>
         </Point>
       </Placemark>	
	<Placemark>
         <name>III: Piscataquog</name>
         <description><![CDATA[<img src="http://www.americanwhitewater.org//logo/AW_logo-Vert3Color_xsmall.gif"> <br> <A HREF="http://www.americanwhitewater.org//content/River/detail/id/4787/">AW Page for this reach</A>]]></description>
         <styleUrl>#style_low</styleUrl>
         <Point>
           <coordinates>-71.5959,43.0183,0</coordinates>
         </Point>
       </Placemark>	
	<Placemark>
         <name>II: Piscataquog</name>
         <description><![CDATA[<img src="http://www.americanwhitewater.org//logo/AW_logo-Vert3Color_xsmall.gif"> <br> <A HREF="http://www.americanwhitewater.org//content/River/detail/id/3600/">AW Page for this reach</A>]]></description>
         <styleUrl>#style_med</styleUrl>
         <Point>
           <coordinates>-71.5672,43.0156,0</coordinates>
         </Point>
       </Placemark>	
	<Placemark>
         <name>IV-V: Pond Brook</name>
         <description><![CDATA[<img src="http://www.americanwhitewater.org//logo/AW_logo-Vert3Color_xsmall.gif"> <br> <A HREF="http://www.americanwhitewater.org//content/River/detail/id/3609/">AW Page for this reach</A>]]></description>
         <styleUrl>#style_low</styleUrl>
         <Point>
           <coordinates>-71.9574,43.8864,0</coordinates>
         </Point>
       </Placemark>	
	<Placemark>
         <name>IV-V: Rocky Branch</name>
         <description><![CDATA[<img src="http://www.americanwhitewater.org//logo/AW_logo-Vert3Color_xsmall.gif"> <br> <A HREF="http://www.americanwhitewater.org//content/River/detail/id/3722/">AW Page for this reach</A>]]></description>
         <styleUrl>#style_</styleUrl>
         <Point>
           <coordinates>-71.2598,44.1317,0</coordinates>
         </Point>
       </Placemark>	
	<Placemark>
         <name>II: Saco</name>
         <description><![CDATA[<img src="http://www.americanwhitewater.org//logo/AW_logo-Vert3Color_xsmall.gif"> <br> <A HREF="http://www.americanwhitewater.org//content/River/detail/id/4606/">AW Page for this reach</A>]]></description>
         <styleUrl>#style_med</styleUrl>
         <Point>
           <coordinates>-71.0119,43.9848,0</coordinates>
         </Point>
       </Placemark>	
	<Placemark>
         <name>III-IV: Saco</name>
         <description><![CDATA[<img src="http://www.americanwhitewater.org//logo/AW_logo-Vert3Color_xsmall.gif"> <br> <A HREF="http://www.americanwhitewater.org//content/River/detail/id/1182/">AW Page for this reach</A>]]></description>
         <styleUrl>#style_low</styleUrl>
         <Point>
           <coordinates>-71.3521,44.11,0</coordinates>
         </Point>
       </Placemark>	
	<Placemark>
         <name>V: Sawyer</name>
         <description><![CDATA[<img src="http://www.americanwhitewater.org//logo/AW_logo-Vert3Color_xsmall.gif"> <br> <A HREF="http://www.americanwhitewater.org//content/River/detail/id/2990/">AW Page for this reach</A>]]></description>
         <styleUrl>#style_low</styleUrl>
         <Point>
           <coordinates>-71.3969,44.0611,0</coordinates>
         </Point>
       </Placemark>	
	<Placemark>
         <name>V: Smarts Brook</name>
         <description><![CDATA[<img src="http://www.americanwhitewater.org//logo/AW_logo-Vert3Color_xsmall.gif"> <br> <A HREF="http://www.americanwhitewater.org//content/River/detail/id/3892/">AW Page for this reach</A>]]></description>
         <styleUrl>#style_</styleUrl>
         <Point>
           <coordinates>-71.5514,43.8882,0</coordinates>
         </Point>
       </Placemark>	
	<Placemark>
         <name>IV: Smith</name>
         <description><![CDATA[<img src="http://www.americanwhitewater.org//logo/AW_logo-Vert3Color_xsmall.gif"> <br> <A HREF="http://www.americanwhitewater.org//content/River/detail/id/1183/">AW Page for this reach</A>]]></description>
         <styleUrl>#style_low</styleUrl>
         <Point>
           <coordinates>-71.8058,43.5528,0</coordinates>
         </Point>
       </Placemark>	
	<Placemark>
         <name>II-III: Smith</name>
         <description><![CDATA[<img src="http://www.americanwhitewater.org//logo/AW_logo-Vert3Color_xsmall.gif"> <br> <A HREF="http://www.americanwhitewater.org//content/River/detail/id/10559/">AW Page for this reach</A>]]></description>
         <styleUrl>#style_low</styleUrl>
         <Point>
           <coordinates>-71.7706,43.5742,0</coordinates>
         </Point>
       </Placemark>	
	<Placemark>
         <name>I-II: Soucook</name>
         <description><![CDATA[<img src="http://www.americanwhitewater.org//logo/AW_logo-Vert3Color_xsmall.gif"> <br> <A HREF="http://www.americanwhitewater.org//content/River/detail/id/1180/">AW Page for this reach</A>]]></description>
         <styleUrl>#style_low</styleUrl>
         <Point>
           <coordinates>-71.4625,43.238,0</coordinates>
         </Point>
       </Placemark>	
	<Placemark>
         <name>II-III: Souhegan</name>
         <description><![CDATA[<img src="http://www.americanwhitewater.org//logo/AW_logo-Vert3Color_xsmall.gif"> <br> <A HREF="http://www.americanwhitewater.org//content/River/detail/id/1185/">AW Page for this reach</A>]]></description>
         <styleUrl>#style_low</styleUrl>
         <Point>
           <coordinates>-71.8054,42.7833,0</coordinates>
         </Point>
       </Placemark>	
	<Placemark>
         <name>III: Souhegan</name>
         <description><![CDATA[<img src="http://www.americanwhitewater.org//logo/AW_logo-Vert3Color_xsmall.gif"> <br> <A HREF="http://www.americanwhitewater.org//content/River/detail/id/3058/">AW Page for this reach</A>]]></description>
         <styleUrl>#style_low</styleUrl>
         <Point>
           <coordinates>-71.7496,42.8325,0</coordinates>
         </Point>
       </Placemark>	
	<Placemark>
         <name>I-II(III): Souhegan</name>
         <description><![CDATA[<img src="http://www.americanwhitewater.org//logo/AW_logo-Vert3Color_xsmall.gif"> <br> <A HREF="http://www.americanwhitewater.org//content/River/detail/id/3741/">AW Page for this reach</A>]]></description>
         <styleUrl>#style_med</styleUrl>
         <Point>
           <coordinates>-71.6505,42.8369,0</coordinates>
         </Point>
       </Placemark>	
	<Placemark>
         <name>IV-V: Stony Brook</name>
         <description><![CDATA[<img src="http://www.americanwhitewater.org//logo/AW_logo-Vert3Color_xsmall.gif"> <br> <A HREF="http://www.americanwhitewater.org//content/River/detail/id/10718/">AW Page for this reach</A>]]></description>
         <styleUrl>#style_low</styleUrl>
         <Point>
           <coordinates>-71.8122,42.89,0</coordinates>
         </Point>
       </Placemark>	
	<Placemark>
         <name>III-IV: Stony Brook</name>
         <description><![CDATA[<img src="http://www.americanwhitewater.org//logo/AW_logo-Vert3Color_xsmall.gif"> <br> <A HREF="http://www.americanwhitewater.org//content/River/detail/id/1186/">AW Page for this reach</A>]]></description>
         <styleUrl>#style_low</styleUrl>
         <Point>
           <coordinates>-71.7632,42.8537,0</coordinates>
         </Point>
       </Placemark>	
	<Placemark>
         <name>II(III): Sugar</name>
         <description><![CDATA[<img src="http://www.americanwhitewater.org//logo/AW_logo-Vert3Color_xsmall.gif"> <br> <A HREF="http://www.americanwhitewater.org//content/River/detail/id/1187/">AW Page for this reach</A>]]></description>
         <styleUrl>#style_med</styleUrl>
         <Point>
           <coordinates>-72.1954,43.3906,0</coordinates>
         </Point>
       </Placemark>	
	<Placemark>
         <name>I-II: Suncook</name>
         <description><![CDATA[<img src="http://www.americanwhitewater.org//logo/AW_logo-Vert3Color_xsmall.gif"> <br> <A HREF="http://www.americanwhitewater.org//content/River/detail/id/3996/">AW Page for this reach</A>]]></description>
         <styleUrl>#style_low</styleUrl>
         <Point>
           <coordinates>-71.2662,43.3592,0</coordinates>
         </Point>
       </Placemark>	
	<Placemark>
         <name>I-II+(III): Suncook</name>
         <description><![CDATA[<img src="http://www.americanwhitewater.org//logo/AW_logo-Vert3Color_xsmall.gif"> <br> <A HREF="http://www.americanwhitewater.org//content/River/detail/id/1188/">AW Page for this reach</A>]]></description>
         <styleUrl>#style_low</styleUrl>
         <Point>
           <coordinates>-71.3203,43.3042,0</coordinates>
         </Point>
       </Placemark>	
	<Placemark>
         <name>I-III: Swift</name>
         <description><![CDATA[<img src="http://www.americanwhitewater.org//logo/AW_logo-Vert3Color_xsmall.gif"> <br> <A HREF="http://www.americanwhitewater.org//content/River/detail/id/1189/">AW Page for this reach</A>]]></description>
         <styleUrl>#style_low</styleUrl>
         <Point>
           <coordinates>-71.4514,44.0339,0</coordinates>
         </Point>
       </Placemark>	
	<Placemark>
         <name>III-IV: Swift</name>
         <description><![CDATA[<img src="http://www.americanwhitewater.org//logo/AW_logo-Vert3Color_xsmall.gif"> <br> <A HREF="http://www.americanwhitewater.org//content/River/detail/id/1191/">AW Page for this reach</A>]]></description>
         <styleUrl>#style_low</styleUrl>
         <Point>
           <coordinates>-71.4178,44.0167,0</coordinates>
         </Point>
       </Placemark>	
	<Placemark>
         <name>IV(V): Swift</name>
         <description><![CDATA[<img src="http://www.americanwhitewater.org//logo/AW_logo-Vert3Color_xsmall.gif"> <br> <A HREF="http://www.americanwhitewater.org//content/River/detail/id/1192/">AW Page for this reach</A>]]></description>
         <styleUrl>#style_med</styleUrl>
         <Point>
           <coordinates>-71.2439,44.0106,0</coordinates>
         </Point>
       </Placemark>	
	<Placemark>
         <name>IV: Upper Ammonoosuc, W. Branch</name>
         <description><![CDATA[<img src="http://www.americanwhitewater.org//logo/AW_logo-Vert3Color_xsmall.gif"> <br> <A HREF="http://www.americanwhitewater.org//content/River/detail/id/1156/">AW Page for this reach</A>]]></description>
         <styleUrl>#style_</styleUrl>
         <Point>
           <coordinates>-71.3699,44.5024,0</coordinates>
         </Point>
       </Placemark>	
	<Placemark>
         <name>II: Upper Ammonoosuc</name>
         <description><![CDATA[<img src="http://www.americanwhitewater.org//logo/AW_logo-Vert3Color_xsmall.gif"> <br> <A HREF="http://www.americanwhitewater.org//content/River/detail/id/10531/">AW Page for this reach</A>]]></description>
         <styleUrl>#style_</styleUrl>
         <Point>
           <coordinates>-71.2889,44.5147,0</coordinates>
         </Point>
       </Placemark>	
	<Placemark>
         <name>IV: Walker Brook</name>
         <description><![CDATA[<img src="http://www.americanwhitewater.org//logo/AW_logo-Vert3Color_xsmall.gif"> <br> <A HREF="http://www.americanwhitewater.org//content/River/detail/id/5623/">AW Page for this reach</A>]]></description>
         <styleUrl>#style_</styleUrl>
         <Point>
           <coordinates>-71.908,43.5031,0</coordinates>
         </Point>
       </Placemark>	
	<Placemark>
         <name>IV: Warner</name>
         <description><![CDATA[<img src="http://www.americanwhitewater.org//logo/AW_logo-Vert3Color_xsmall.gif"> <br> <A HREF="http://www.americanwhitewater.org//content/River/detail/id/3603/">AW Page for this reach</A>]]></description>
         <styleUrl>#style_med</styleUrl>
         <Point>
           <coordinates>-71.9186,43.2672,0</coordinates>
         </Point>
       </Placemark>	
	<Placemark>
         <name>II: Wild Ammonoosuc</name>
         <description><![CDATA[<img src="http://www.americanwhitewater.org//logo/AW_logo-Vert3Color_xsmall.gif"> <br> <A HREF="http://www.americanwhitewater.org//content/River/detail/id/3737/">AW Page for this reach</A>]]></description>
         <styleUrl>#style_</styleUrl>
         <Point>
           <coordinates>-71.7956,44.0753,0</coordinates>
         </Point>
       </Placemark>	
	<Placemark>
         <name>III: Wild Ammonoosuc</name>
         <description><![CDATA[<img src="http://www.americanwhitewater.org//logo/AW_logo-Vert3Color_xsmall.gif"> <br> <A HREF="http://www.americanwhitewater.org//content/River/detail/id/1193/">AW Page for this reach</A>]]></description>
         <styleUrl>#style_</styleUrl>
         <Point>
           <coordinates>-71.8679,44.1055,0</coordinates>
         </Point>
       </Placemark>	
	<Placemark>
         <name>I-II: Winnipesaukee</name>
         <description><![CDATA[<img src="http://www.americanwhitewater.org//logo/AW_logo-Vert3Color_xsmall.gif"> <br> <A HREF="http://www.americanwhitewater.org//content/River/detail/id/3570/">AW Page for this reach</A>]]></description>
         <styleUrl>#style_med</styleUrl>
         <Point>
           <coordinates>-71.5612,43.4503,0</coordinates>
         </Point>
       </Placemark>	
	<Placemark>
         <name>III+: Winnipesaukee</name>
         <description><![CDATA[<img src="http://www.americanwhitewater.org//logo/AW_logo-Vert3Color_xsmall.gif"> <br> <A HREF="http://www.americanwhitewater.org//content/River/detail/id/3057/">AW Page for this reach</A>]]></description>
         <styleUrl>#style_med</styleUrl>
         <Point>
           <coordinates>-71.6217,43.4429,0</coordinates>
         </Point>
       </Placemark>	
	<Placemark>
         <name>III: Wonalancet</name>
         <description><![CDATA[<img src="http://www.americanwhitewater.org//logo/AW_logo-Vert3Color_xsmall.gif"> <br> <A HREF="http://www.americanwhitewater.org//content/River/detail/id/1194/">AW Page for this reach</A>]]></description>
         <styleUrl>#style_low</styleUrl>
         <Point>
           <coordinates>-71.2978,43.8919,0</coordinates>
         </Point>
       </Placemark></Document></kml>