

<kml xmlns="http://earth.google.com/kml/2.0"><Document><name>AW Rivers</name>	<Style id="style_">
		<IconStyle id="AWicon">
			<color>ff9c9c9c</color>
			<scale>0.6</scale>
			<Icon>
				<href>http://www.americanwhitewater.org//resources/images/maps/unknown.png</href>
			</Icon>
		</IconStyle>
		<LabelStyle>
			<color>ff9c9c9c</color>
		</LabelStyle>
	</Style>	<Style id="style_low">
		<IconStyle id="AWiconlow">
			<color>ff7fa7ff</color>
			<scale>0.6</scale>
			<Icon>
				<href>http://www.americanwhitewater.org//resources/images/maps/low.png</href>
			</Icon>
		</IconStyle>
		<LabelStyle>
			<color>ff7fa7ff</color>
		</LabelStyle>
	</Style>	<Style id="style_med">
		<IconStyle id="AWiconmed">
			<color>ff00ff55</color>
			<scale>0.6</scale>
			<Icon>
				<href>http://www.americanwhitewater.org//resources/images/maps/running.png</href>
			</Icon>
		</IconStyle>
		<LabelStyle>
			<color>ff00ff55</color>
		</LabelStyle>
	</Style>	<Style id="style_high">
		<IconStyle id="AWiconhigh">
			<color>ffffc500</color>
			<scale>0.6</scale>
			<Icon>
				<href>http://www.americanwhitewater.org//resources/images/maps/high.png</href>
			</Icon>
		</IconStyle>
		<LabelStyle>
			<color>ffffc500</color>
		</LabelStyle>
	</Style>	
	<Placemark>
         <name>II: Ashtabula</name>
         <description><![CDATA[<img src="http://www.americanwhitewater.org//logo/AW_logo-Vert3Color_xsmall.gif"> <br> <A HREF="http://www.americanwhitewater.org//content/River/detail/id/1465/">AW Page for this reach</A>]]></description>
         <styleUrl>#style_</styleUrl>
         <Point>
           <coordinates>-80.7274,41.8525,0</coordinates>
         </Point>
       </Placemark>	
	<Placemark>
         <name>III-V: Backbone Creek</name>
         <description><![CDATA[<img src="http://www.americanwhitewater.org//logo/AW_logo-Vert3Color_xsmall.gif"> <br> <A HREF="http://www.americanwhitewater.org//content/River/detail/id/3948/">AW Page for this reach</A>]]></description>
         <styleUrl>#style_</styleUrl>
         <Point>
           <coordinates>-84.1477,39.0883,0</coordinates>
         </Point>
       </Placemark>	
	<Placemark>
         <name>III: Big Creek</name>
         <description><![CDATA[<img src="http://www.americanwhitewater.org//logo/AW_logo-Vert3Color_xsmall.gif"> <br> <A HREF="http://www.americanwhitewater.org//content/River/detail/id/2503/">AW Page for this reach</A>]]></description>
         <styleUrl>#style_</styleUrl>
         <Point>
           <coordinates>-81.1877,41.6492,0</coordinates>
         </Point>
       </Placemark>	
	<Placemark>
         <name>III-IV: Big Indian Creek</name>
         <description><![CDATA[<img src="http://www.americanwhitewater.org//logo/AW_logo-Vert3Color_xsmall.gif"> <br> <A HREF="http://www.americanwhitewater.org//content/River/detail/id/2635/">AW Page for this reach</A>]]></description>
         <styleUrl>#style_</styleUrl>
         <Point>
           <coordinates>-84.0961,38.9174,0</coordinates>
         </Point>
       </Placemark>	
	<Placemark>
         <name>II-III: Big Three Mile Creek</name>
         <description><![CDATA[<img src="http://www.americanwhitewater.org//logo/AW_logo-Vert3Color_xsmall.gif"> <br> <A HREF="http://www.americanwhitewater.org//content/River/detail/id/4127/">AW Page for this reach</A>]]></description>
         <styleUrl>#style_</styleUrl>
         <Point>
           <coordinates>-83.691,38.6848,0</coordinates>
         </Point>
       </Placemark>	
	<Placemark>
         <name>II-III+(IV): Birch Creek</name>
         <description><![CDATA[<img src="http://www.americanwhitewater.org//logo/AW_logo-Vert3Color_xsmall.gif"> <br> <A HREF="http://www.americanwhitewater.org//content/River/detail/id/10510/">AW Page for this reach</A>]]></description>
         <styleUrl>#style_</styleUrl>
         <Point>
           <coordinates>-83.8761,39.8073,0</coordinates>
         </Point>
       </Placemark>	
	<Placemark>
         <name>III-IV: Boomershine Branch</name>
         <description><![CDATA[<img src="http://www.americanwhitewater.org//logo/AW_logo-Vert3Color_xsmall.gif"> <br> <A HREF="http://www.americanwhitewater.org//content/River/detail/id/10569/">AW Page for this reach</A>]]></description>
         <styleUrl>#style_</styleUrl>
         <Point>
           <coordinates>-84.4262,39.6402,0</coordinates>
         </Point>
       </Placemark>	
	<Placemark>
         <name>II-III(IV): Brushy Fork</name>
         <description><![CDATA[<img src="http://www.americanwhitewater.org//logo/AW_logo-Vert3Color_xsmall.gif"> <br> <A HREF="http://www.americanwhitewater.org//content/River/detail/id/3131/">AW Page for this reach</A>]]></description>
         <styleUrl>#style_</styleUrl>
         <Point>
           <coordinates>-84.1213,39.1356,0</coordinates>
         </Point>
       </Placemark>	
	<Placemark>
         <name>II(III): Buck Creek</name>
         <description><![CDATA[<img src="http://www.americanwhitewater.org//logo/AW_logo-Vert3Color_xsmall.gif"> <br> <A HREF="http://www.americanwhitewater.org//content/River/detail/id/10283/">AW Page for this reach</A>]]></description>
         <styleUrl>#style_low</styleUrl>
         <Point>
           <coordinates>-83.8113,39.9287,0</coordinates>
         </Point>
       </Placemark>	
	<Placemark>
         <name>II-III: Caesar Creek, Flat Fork</name>
         <description><![CDATA[<img src="http://www.americanwhitewater.org//logo/AW_logo-Vert3Color_xsmall.gif"> <br> <A HREF="http://www.americanwhitewater.org//content/River/detail/id/10508/">AW Page for this reach</A>]]></description>
         <styleUrl>#style_</styleUrl>
         <Point>
           <coordinates>-84.0461,39.474,0</coordinates>
         </Point>
       </Placemark>	
	<Placemark>
         <name>III: Caesar Creek, O&#039;Neall Fork</name>
         <description><![CDATA[<img src="http://www.americanwhitewater.org//logo/AW_logo-Vert3Color_xsmall.gif"> <br> <A HREF="http://www.americanwhitewater.org//content/River/detail/id/10631/">AW Page for this reach</A>]]></description>
         <styleUrl>#style_</styleUrl>
         <Point>
           <coordinates>-84.0646,39.4768,0</coordinates>
         </Point>
       </Placemark>	
	<Placemark>
         <name>II: Caesar Creek</name>
         <description><![CDATA[<img src="http://www.americanwhitewater.org//logo/AW_logo-Vert3Color_xsmall.gif"> <br> <A HREF="http://www.americanwhitewater.org//content/River/detail/id/3182/">AW Page for this reach</A>]]></description>
         <styleUrl>#style_low</styleUrl>
         <Point>
           <coordinates>-84.0652,39.483,0</coordinates>
         </Point>
       </Placemark>	
	<Placemark>
         <name>I-III: Cedar Falls Creek</name>
         <description><![CDATA[<img src="http://www.americanwhitewater.org//logo/AW_logo-Vert3Color_xsmall.gif"> <br> <A HREF="http://www.americanwhitewater.org//content/River/detail/id/10544/">AW Page for this reach</A>]]></description>
         <styleUrl>#style_</styleUrl>
         <Point>
           <coordinates>-84.7431,39.6013,0</coordinates>
         </Point>
       </Placemark>	
	<Placemark>
         <name>III-IV: Chagrin, Aurora Branch</name>
         <description><![CDATA[<img src="http://www.americanwhitewater.org//logo/AW_logo-Vert3Color_xsmall.gif"> <br> <A HREF="http://www.americanwhitewater.org//content/River/detail/id/3422/">AW Page for this reach</A>]]></description>
         <styleUrl>#style_</styleUrl>
         <Point>
           <coordinates>-81.4122,41.4112,0</coordinates>
         </Point>
       </Placemark>	
	<Placemark>
         <name>II: Chagrin, E.Br.</name>
         <description><![CDATA[<img src="http://www.americanwhitewater.org//logo/AW_logo-Vert3Color_xsmall.gif"> <br> <A HREF="http://www.americanwhitewater.org//content/River/detail/id/2760/">AW Page for this reach</A>]]></description>
         <styleUrl>#style_</styleUrl>
         <Point>
           <coordinates>-81.2822,41.6166,0</coordinates>
         </Point>
       </Placemark>	
	<Placemark>
         <name>I: Chagrin</name>
         <description><![CDATA[<img src="http://www.americanwhitewater.org//logo/AW_logo-Vert3Color_xsmall.gif"> <br> <A HREF="http://www.americanwhitewater.org//content/River/detail/id/3228/">AW Page for this reach</A>]]></description>
         <styleUrl>#style_med</styleUrl>
         <Point>
           <coordinates>-81.414,41.5714,0</coordinates>
         </Point>
       </Placemark>	
	<Placemark>
         <name>V: Chippewa Creek</name>
         <description><![CDATA[<img src="http://www.americanwhitewater.org//logo/AW_logo-Vert3Color_xsmall.gif"> <br> <A HREF="http://www.americanwhitewater.org//content/River/detail/id/2649/">AW Page for this reach</A>]]></description>
         <styleUrl>#style_</styleUrl>
         <Point>
           <coordinates>-81.622,41.3203,0</coordinates>
         </Point>
       </Placemark>	
	<Placemark>
         <name>II: Clear Fork of Mohican</name>
         <description><![CDATA[<img src="http://www.americanwhitewater.org//logo/AW_logo-Vert3Color_xsmall.gif"> <br> <A HREF="http://www.americanwhitewater.org//content/River/detail/id/1466/">AW Page for this reach</A>]]></description>
         <styleUrl>#style_</styleUrl>
         <Point>
           <coordinates>-82.3257,40.6214,0</coordinates>
         </Point>
       </Placemark>	
	<Placemark>
         <name>II-III: Cloverlick Creek</name>
         <description><![CDATA[<img src="http://www.americanwhitewater.org//logo/AW_logo-Vert3Color_xsmall.gif"> <br> <A HREF="http://www.americanwhitewater.org//content/River/detail/id/10377/">AW Page for this reach</A>]]></description>
         <styleUrl>#style_</styleUrl>
         <Point>
           <coordinates>-84.0528,38.9858,0</coordinates>
         </Point>
       </Placemark>	
	<Placemark>
         <name>I: Conneaut Creek</name>
         <description><![CDATA[<img src="http://www.americanwhitewater.org//logo/AW_logo-Vert3Color_xsmall.gif"> <br> <A HREF="http://www.americanwhitewater.org//content/River/detail/id/4649/">AW Page for this reach</A>]]></description>
         <styleUrl>#style_low</styleUrl>
         <Point>
           <coordinates>-80.6206,41.886,0</coordinates>
         </Point>
       </Placemark>	
	<Placemark>
         <name>II(III): Cuyahoga</name>
         <description><![CDATA[<img src="http://www.americanwhitewater.org//logo/AW_logo-Vert3Color_xsmall.gif"> <br> <A HREF="http://www.americanwhitewater.org//content/River/detail/id/4124/">AW Page for this reach</A>]]></description>
         <styleUrl>#style_med</styleUrl>
         <Point>
           <coordinates>-81.3593,41.1571,0</coordinates>
         </Point>
       </Placemark>	
	<Placemark>
         <name>II-IV: Cuyahoga</name>
         <description><![CDATA[<img src="http://www.americanwhitewater.org//logo/AW_logo-Vert3Color_xsmall.gif"> <br> <A HREF="http://www.americanwhitewater.org//content/River/detail/id/10573/">AW Page for this reach</A>]]></description>
         <styleUrl>#style_</styleUrl>
         <Point>
           <coordinates>-81.4738,41.1447,0</coordinates>
         </Point>
       </Placemark>	
	<Placemark>
         <name>V: Cuyahoga</name>
         <description><![CDATA[<img src="http://www.americanwhitewater.org//logo/AW_logo-Vert3Color_xsmall.gif"> <br> <A HREF="http://www.americanwhitewater.org//content/River/detail/id/2499/">AW Page for this reach</A>]]></description>
         <styleUrl>#style_high</styleUrl>
         <Point>
           <coordinates>-81.4819,41.1359,0</coordinates>
         </Point>
       </Placemark>	
	<Placemark>
         <name>I-II(IV): Cuyahoga</name>
         <description><![CDATA[<img src="http://www.americanwhitewater.org//logo/AW_logo-Vert3Color_xsmall.gif"> <br> <A HREF="http://www.americanwhitewater.org//content/River/detail/id/5183/">AW Page for this reach</A>]]></description>
         <styleUrl>#style_high</styleUrl>
         <Point>
           <coordinates>-81.4929,41.1183,0</coordinates>
         </Point>
       </Placemark>	
	<Placemark>
         <name>III-IV: Cuyahoga</name>
         <description><![CDATA[<img src="http://www.americanwhitewater.org//logo/AW_logo-Vert3Color_xsmall.gif"> <br> <A HREF="http://www.americanwhitewater.org//content/River/detail/id/1467/">AW Page for this reach</A>]]></description>
         <styleUrl>#style_med</styleUrl>
         <Point>
           <coordinates>-81.4976,41.1233,0</coordinates>
         </Point>
       </Placemark>	
	<Placemark>
         <name>I: Cuyahoga</name>
         <description><![CDATA[<img src="http://www.americanwhitewater.org//logo/AW_logo-Vert3Color_xsmall.gif"> <br> <A HREF="http://www.americanwhitewater.org//content/River/detail/id/3355/">AW Page for this reach</A>]]></description>
         <styleUrl>#style_med</styleUrl>
         <Point>
           <coordinates>-81.5835,41.1814,0</coordinates>
         </Point>
       </Placemark>	
	<Placemark>
         <name>I-II: Cuyahoga</name>
         <description><![CDATA[<img src="http://www.americanwhitewater.org//logo/AW_logo-Vert3Color_xsmall.gif"> <br> <A HREF="http://www.americanwhitewater.org//content/River/detail/id/2500/">AW Page for this reach</A>]]></description>
         <styleUrl>#style_med</styleUrl>
         <Point>
           <coordinates>-81.5503,41.2431,0</coordinates>
         </Point>
       </Placemark>	
	<Placemark>
         <name>I-II+(III): Eagle Creek, West fork</name>
         <description><![CDATA[<img src="http://www.americanwhitewater.org//logo/AW_logo-Vert3Color_xsmall.gif"> <br> <A HREF="http://www.americanwhitewater.org//content/River/detail/id/10375/">AW Page for this reach</A>]]></description>
         <styleUrl>#style_</styleUrl>
         <Point>
           <coordinates>-83.7385,38.8157,0</coordinates>
         </Point>
       </Placemark>	
	<Placemark>
         <name>II-III: First Creek</name>
         <description><![CDATA[<img src="http://www.americanwhitewater.org//logo/AW_logo-Vert3Color_xsmall.gif"> <br> <A HREF="http://www.americanwhitewater.org//content/River/detail/id/4490/">AW Page for this reach</A>]]></description>
         <styleUrl>#style_</styleUrl>
         <Point>
           <coordinates>-84.1281,39.3196,0</coordinates>
         </Point>
       </Placemark>	
	<Placemark>
         <name>II(IV): Four Mile Creek</name>
         <description><![CDATA[<img src="http://www.americanwhitewater.org//logo/AW_logo-Vert3Color_xsmall.gif"> <br> <A HREF="http://www.americanwhitewater.org//content/River/detail/id/10601/">AW Page for this reach</A>]]></description>
         <styleUrl>#style_</styleUrl>
         <Point>
           <coordinates>-84.7311,39.5175,0</coordinates>
         </Point>
       </Placemark>	
	<Placemark>
         <name>I-II: Grand</name>
         <description><![CDATA[<img src="http://www.americanwhitewater.org//logo/AW_logo-Vert3Color_xsmall.gif"> <br> <A HREF="http://www.americanwhitewater.org//content/River/detail/id/1468/">AW Page for this reach</A>]]></description>
         <styleUrl>#style_low</styleUrl>
         <Point>
           <coordinates>-80.9603,41.7489,0</coordinates>
         </Point>
       </Placemark>	
	<Placemark>
         <name>II: Great Miami</name>
         <description><![CDATA[<img src="http://www.americanwhitewater.org//logo/AW_logo-Vert3Color_xsmall.gif"> <br> <A HREF="http://www.americanwhitewater.org//content/River/detail/id/10551/">AW Page for this reach</A>]]></description>
         <styleUrl>#style_</styleUrl>
         <Point>
           <coordinates>-84.1908,39.7645,0</coordinates>
         </Point>
       </Placemark>	
	<Placemark>
         <name>I-II: Great Miami</name>
         <description><![CDATA[<img src="http://www.americanwhitewater.org//logo/AW_logo-Vert3Color_xsmall.gif"> <br> <A HREF="http://www.americanwhitewater.org//content/River/detail/id/4554/">AW Page for this reach</A>]]></description>
         <styleUrl>#style_high</styleUrl>
         <Point>
           <coordinates>-84.6418,39.3046,0</coordinates>
         </Point>
       </Placemark>	
	<Placemark>
         <name>I: Great Miami</name>
         <description><![CDATA[<img src="http://www.americanwhitewater.org//logo/AW_logo-Vert3Color_xsmall.gif"> <br> <A HREF="http://www.americanwhitewater.org//content/River/detail/id/4094/">AW Page for this reach</A>]]></description>
         <styleUrl>#style_high</styleUrl>
         <Point>
           <coordinates>-84.7595,39.1705,0</coordinates>
         </Point>
       </Placemark>	
	<Placemark>
         <name>I-III+: Greenville Creek</name>
         <description><![CDATA[<img src="http://www.americanwhitewater.org//logo/AW_logo-Vert3Color_xsmall.gif"> <br> <A HREF="http://www.americanwhitewater.org//content/River/detail/id/10526/">AW Page for this reach</A>]]></description>
         <styleUrl>#style_med</styleUrl>
         <Point>
           <coordinates>-84.3753,40.1075,0</coordinates>
         </Point>
       </Placemark>	
	<Placemark>
         <name>III+(IV): Hall&#039;s Creek</name>
         <description><![CDATA[<img src="http://www.americanwhitewater.org//logo/AW_logo-Vert3Color_xsmall.gif"> <br> <A HREF="http://www.americanwhitewater.org//content/River/detail/id/3143/">AW Page for this reach</A>]]></description>
         <styleUrl>#style_</styleUrl>
         <Point>
           <coordinates>-84.1494,39.3852,0</coordinates>
         </Point>
       </Placemark>	
	<Placemark>
         <name>III-IV: Hershel Run</name>
         <description><![CDATA[<img src="http://www.americanwhitewater.org//logo/AW_logo-Vert3Color_xsmall.gif"> <br> <A HREF="http://www.americanwhitewater.org//content/River/detail/id/3142/">AW Page for this reach</A>]]></description>
         <styleUrl>#style_</styleUrl>
         <Point>
           <coordinates>-84.1345,39.1271,0</coordinates>
         </Point>
       </Placemark>	
	<Placemark>
         <name>II-IV: Hocking</name>
         <description><![CDATA[<img src="http://www.americanwhitewater.org//logo/AW_logo-Vert3Color_xsmall.gif"> <br> <A HREF="http://www.americanwhitewater.org//content/River/detail/id/2668/">AW Page for this reach</A>]]></description>
         <styleUrl>#style_</styleUrl>
         <Point>
           <coordinates>-82.7175,39.7489,0</coordinates>
         </Point>
       </Placemark>	
	<Placemark>
         <name>II-III: Holes Creek</name>
         <description><![CDATA[<img src="http://www.americanwhitewater.org//logo/AW_logo-Vert3Color_xsmall.gif"> <br> <A HREF="http://www.americanwhitewater.org//content/River/detail/id/10561/">AW Page for this reach</A>]]></description>
         <styleUrl>#style_med</styleUrl>
         <Point>
           <coordinates>-84.1776,39.6388,0</coordinates>
         </Point>
       </Placemark>	
	<Placemark>
         <name>III-IV: Horner Run</name>
         <description><![CDATA[<img src="http://www.americanwhitewater.org//logo/AW_logo-Vert3Color_xsmall.gif"> <br> <A HREF="http://www.americanwhitewater.org//content/River/detail/id/3658/">AW Page for this reach</A>]]></description>
         <styleUrl>#style_</styleUrl>
         <Point>
           <coordinates>-84.2487,39.2054,0</coordinates>
         </Point>
       </Placemark>	
	<Placemark>
         <name>III-V: Indian Run</name>
         <description><![CDATA[<img src="http://www.americanwhitewater.org//logo/AW_logo-Vert3Color_xsmall.gif"> <br> <A HREF="http://www.americanwhitewater.org//content/River/detail/id/10579/">AW Page for this reach</A>]]></description>
         <styleUrl>#style_</styleUrl>
         <Point>
           <coordinates>-83.1215,40.0996,0</coordinates>
         </Point>
       </Placemark>	
	<Placemark>
         <name>IV: Kellogg Creek</name>
         <description><![CDATA[<img src="http://www.americanwhitewater.org//logo/AW_logo-Vert3Color_xsmall.gif"> <br> <A HREF="http://www.americanwhitewater.org//content/River/detail/id/2648/">AW Page for this reach</A>]]></description>
         <styleUrl>#style_</styleUrl>
         <Point>
           <coordinates>-81.2588,41.6868,0</coordinates>
         </Point>
       </Placemark>	
	<Placemark>
         <name>I-II: Kokosing</name>
         <description><![CDATA[<img src="http://www.americanwhitewater.org//logo/AW_logo-Vert3Color_xsmall.gif"> <br> <A HREF="http://www.americanwhitewater.org//content/River/detail/id/2869/">AW Page for this reach</A>]]></description>
         <styleUrl>#style_med</styleUrl>
         <Point>
           <coordinates>-82.4041,40.3759,0</coordinates>
         </Point>
       </Placemark>	
	<Placemark>
         <name>I: Lake Erie</name>
         <description><![CDATA[<img src="http://www.americanwhitewater.org//logo/AW_logo-Vert3Color_xsmall.gif"> <br> <A HREF="http://www.americanwhitewater.org//content/River/detail/id/3591/">AW Page for this reach</A>]]></description>
         <styleUrl>#style_</styleUrl>
         <Point>
           <coordinates>-81.7439,41.4867,0</coordinates>
         </Point>
       </Placemark>	
	<Placemark>
         <name>III: Lee&#039;s Creek</name>
         <description><![CDATA[<img src="http://www.americanwhitewater.org//logo/AW_logo-Vert3Color_xsmall.gif"> <br> <A HREF="http://www.americanwhitewater.org//content/River/detail/id/2636/">AW Page for this reach</A>]]></description>
         <styleUrl>#style_</styleUrl>
         <Point>
           <coordinates>-83.5845,39.3473,0</coordinates>
         </Point>
       </Placemark>	
	<Placemark>
         <name>I: Licking</name>
         <description><![CDATA[<img src="http://www.americanwhitewater.org//logo/AW_logo-Vert3Color_xsmall.gif"> <br> <A HREF="http://www.americanwhitewater.org//content/River/detail/id/3215/">AW Page for this reach</A>]]></description>
         <styleUrl>#style_</styleUrl>
         <Point>
           <coordinates>-82.3387,40.0593,0</coordinates>
         </Point>
       </Placemark>	
	<Placemark>
         <name>II: Licking</name>
         <description><![CDATA[<img src="http://www.americanwhitewater.org//logo/AW_logo-Vert3Color_xsmall.gif"> <br> <A HREF="http://www.americanwhitewater.org//content/River/detail/id/1469/">AW Page for this reach</A>]]></description>
         <styleUrl>#style_med</styleUrl>
         <Point>
           <coordinates>-82.0806,39.9905,0</coordinates>
         </Point>
       </Placemark>	
	<Placemark>
         <name>I-II: Little Beaver Creek</name>
         <description><![CDATA[<img src="http://www.americanwhitewater.org//logo/AW_logo-Vert3Color_xsmall.gif"> <br> <A HREF="http://www.americanwhitewater.org//content/River/detail/id/3126/">AW Page for this reach</A>]]></description>
         <styleUrl>#style_med</styleUrl>
         <Point>
           <coordinates>-80.6689,40.7403,0</coordinates>
         </Point>
       </Placemark>	
	<Placemark>
         <name>I(II): Little Beaver Creek</name>
         <description><![CDATA[<img src="http://www.americanwhitewater.org//logo/AW_logo-Vert3Color_xsmall.gif"> <br> <A HREF="http://www.americanwhitewater.org//content/River/detail/id/1470/">AW Page for this reach</A>]]></description>
         <styleUrl>#style_med</styleUrl>
         <Point>
           <coordinates>-80.6128,40.7258,0</coordinates>
         </Point>
       </Placemark>	
	<Placemark>
         <name>I(II): Little Beaver Creek</name>
         <description><![CDATA[<img src="http://www.americanwhitewater.org//logo/AW_logo-Vert3Color_xsmall.gif"> <br> <A HREF="http://www.americanwhitewater.org//content/River/detail/id/1471/">AW Page for this reach</A>]]></description>
         <styleUrl>#style_med</styleUrl>
         <Point>
           <coordinates>-80.5475,40.7122,0</coordinates>
         </Point>
       </Placemark>	
	<Placemark>
         <name>I-II: Little Miami River, East Fork</name>
         <description><![CDATA[<img src="http://www.americanwhitewater.org//logo/AW_logo-Vert3Color_xsmall.gif"> <br> <A HREF="http://www.americanwhitewater.org//content/River/detail/id/10632/">AW Page for this reach</A>]]></description>
         <styleUrl>#style_med</styleUrl>
         <Point>
           <coordinates>-84.0504,39.0519,0</coordinates>
         </Point>
       </Placemark>	
	<Placemark>
         <name>II-IV: Little Miami</name>
         <description><![CDATA[<img src="http://www.americanwhitewater.org//logo/AW_logo-Vert3Color_xsmall.gif"> <br> <A HREF="http://www.americanwhitewater.org//content/River/detail/id/4111/">AW Page for this reach</A>]]></description>
         <styleUrl>#style_low</styleUrl>
         <Point>
           <coordinates>-83.8266,39.7938,0</coordinates>
         </Point>
       </Placemark>	
	<Placemark>
         <name>I: Little Miami</name>
         <description><![CDATA[<img src="http://www.americanwhitewater.org//logo/AW_logo-Vert3Color_xsmall.gif"> <br> <A HREF="http://www.americanwhitewater.org//content/River/detail/id/10376/">AW Page for this reach</A>]]></description>
         <styleUrl>#style_med</styleUrl>
         <Point>
           <coordinates>-84.1063,39.4336,0</coordinates>
         </Point>
       </Placemark>	
	<Placemark>
         <name>I-II: Little Miami</name>
         <description><![CDATA[<img src="http://www.americanwhitewater.org//logo/AW_logo-Vert3Color_xsmall.gif"> <br> <A HREF="http://www.americanwhitewater.org//content/River/detail/id/4090/">AW Page for this reach</A>]]></description>
         <styleUrl>#style_high</styleUrl>
         <Point>
           <coordinates>-84.3066,39.2114,0</coordinates>
         </Point>
       </Placemark>	
	<Placemark>
         <name>I-II: Little Miami</name>
         <description><![CDATA[<img src="http://www.americanwhitewater.org//logo/AW_logo-Vert3Color_xsmall.gif"> <br> <A HREF="http://www.americanwhitewater.org//content/River/detail/id/10600/">AW Page for this reach</A>]]></description>
         <styleUrl>#style_med</styleUrl>
         <Point>
           <coordinates>-84.3064,39.2093,0</coordinates>
         </Point>
       </Placemark>	
	<Placemark>
         <name>II+(IV): Ludlow Creek</name>
         <description><![CDATA[<img src="http://www.americanwhitewater.org//logo/AW_logo-Vert3Color_xsmall.gif"> <br> <A HREF="http://www.americanwhitewater.org//content/River/detail/id/10527/">AW Page for this reach</A>]]></description>
         <styleUrl>#style_med</styleUrl>
         <Point>
           <coordinates>-84.3641,39.9932,0</coordinates>
         </Point>
       </Placemark>	
	<Placemark>
         <name>II+: Mad</name>
         <description><![CDATA[<img src="http://www.americanwhitewater.org//logo/AW_logo-Vert3Color_xsmall.gif"> <br> <A HREF="http://www.americanwhitewater.org//content/River/detail/id/4093/">AW Page for this reach</A>]]></description>
         <styleUrl>#style_low</styleUrl>
         <Point>
           <coordinates>-84.0919,39.7982,0</coordinates>
         </Point>
       </Placemark>	
	<Placemark>
         <name>I: Mad</name>
         <description><![CDATA[<img src="http://www.americanwhitewater.org//logo/AW_logo-Vert3Color_xsmall.gif"> <br> <A HREF="http://www.americanwhitewater.org//content/River/detail/id/1707/">AW Page for this reach</A>]]></description>
         <styleUrl>#style_med</styleUrl>
         <Point>
           <coordinates>-84.1239,39.7885,0</coordinates>
         </Point>
       </Placemark>	
	<Placemark>
         <name>III: Massie&#039;s Creek</name>
         <description><![CDATA[<img src="http://www.americanwhitewater.org//logo/AW_logo-Vert3Color_xsmall.gif"> <br> <A HREF="http://www.americanwhitewater.org//content/River/detail/id/3667/">AW Page for this reach</A>]]></description>
         <styleUrl>#style_low</styleUrl>
         <Point>
           <coordinates>-83.8128,39.7387,0</coordinates>
         </Point>
       </Placemark>	
	<Placemark>
         <name>I: Maumee</name>
         <description><![CDATA[<img src="http://www.americanwhitewater.org//logo/AW_logo-Vert3Color_xsmall.gif"> <br> <A HREF="http://www.americanwhitewater.org//content/River/detail/id/3240/">AW Page for this reach</A>]]></description>
         <styleUrl>#style_</styleUrl>
         <Point>
           <coordinates>-83.8757,41.4121,0</coordinates>
         </Point>
       </Placemark>	
	<Placemark>
         <name>I-II(III): Maumee</name>
         <description><![CDATA[<img src="http://www.americanwhitewater.org//logo/AW_logo-Vert3Color_xsmall.gif"> <br> <A HREF="http://www.americanwhitewater.org//content/River/detail/id/1472/">AW Page for this reach</A>]]></description>
         <styleUrl>#style_low</styleUrl>
         <Point>
           <coordinates>-83.7866,41.4448,0</coordinates>
         </Point>
       </Placemark>	
	<Placemark>
         <name>II-III: Morning Sun</name>
         <description><![CDATA[<img src="http://www.americanwhitewater.org//logo/AW_logo-Vert3Color_xsmall.gif"> <br> <A HREF="http://www.americanwhitewater.org//content/River/detail/id/10628/">AW Page for this reach</A>]]></description>
         <styleUrl>#style_</styleUrl>
         <Point>
           <coordinates>-84.7411,39.5916,0</coordinates>
         </Point>
       </Placemark>	
	<Placemark>
         <name>II(III): O&#039;Bannon Creek</name>
         <description><![CDATA[<img src="http://www.americanwhitewater.org//logo/AW_logo-Vert3Color_xsmall.gif"> <br> <A HREF="http://www.americanwhitewater.org//content/River/detail/id/5118/">AW Page for this reach</A>]]></description>
         <styleUrl>#style_med</styleUrl>
         <Point>
           <coordinates>-84.2011,39.2494,0</coordinates>
         </Point>
       </Placemark>	
	<Placemark>
         <name>I-II: Olentangy</name>
         <description><![CDATA[<img src="http://www.americanwhitewater.org//logo/AW_logo-Vert3Color_xsmall.gif"> <br> <A HREF="http://www.americanwhitewater.org//content/River/detail/id/3092/">AW Page for this reach</A>]]></description>
         <styleUrl>#style_low</styleUrl>
         <Point>
           <coordinates>-83.0636,40.2866,0</coordinates>
         </Point>
       </Placemark>	
	<Placemark>
         <name>II-III(V): Paine Creek</name>
         <description><![CDATA[<img src="http://www.americanwhitewater.org//logo/AW_logo-Vert3Color_xsmall.gif"> <br> <A HREF="http://www.americanwhitewater.org//content/River/detail/id/2650/">AW Page for this reach</A>]]></description>
         <styleUrl>#style_</styleUrl>
         <Point>
           <coordinates>-81.1333,41.7333,0</coordinates>
         </Point>
       </Placemark>	
	<Placemark>
         <name>I-II(III): Paint Creek</name>
         <description><![CDATA[<img src="http://www.americanwhitewater.org//logo/AW_logo-Vert3Color_xsmall.gif"> <br> <A HREF="http://www.americanwhitewater.org//content/River/detail/id/1473/">AW Page for this reach</A>]]></description>
         <styleUrl>#style_med</styleUrl>
         <Point>
           <coordinates>-83.3525,39.2506,0</coordinates>
         </Point>
       </Placemark>	
	<Placemark>
         <name>I-III+: Painter Creek</name>
         <description><![CDATA[<img src="http://www.americanwhitewater.org//logo/AW_logo-Vert3Color_xsmall.gif"> <br> <A HREF="http://www.americanwhitewater.org//content/River/detail/id/10528/">AW Page for this reach</A>]]></description>
         <styleUrl>#style_med</styleUrl>
         <Point>
           <coordinates>-84.3729,40.086,0</coordinates>
         </Point>
       </Placemark>	
	<Placemark>
         <name>I-II: Portage</name>
         <description><![CDATA[<img src="http://www.americanwhitewater.org//logo/AW_logo-Vert3Color_xsmall.gif"> <br> <A HREF="http://www.americanwhitewater.org//content/River/detail/id/3100/">AW Page for this reach</A>]]></description>
         <styleUrl>#style_low</styleUrl>
         <Point>
           <coordinates>-83.3661,41.4578,0</coordinates>
         </Point>
       </Placemark>	
	<Placemark>
         <name>II(IV): Rattlesnake Creek</name>
         <description><![CDATA[<img src="http://www.americanwhitewater.org//logo/AW_logo-Vert3Color_xsmall.gif"> <br> <A HREF="http://www.americanwhitewater.org//content/River/detail/id/2638/">AW Page for this reach</A>]]></description>
         <styleUrl>#style_med</styleUrl>
         <Point>
           <coordinates>-83.4958,39.3807,0</coordinates>
         </Point>
       </Placemark>	
	<Placemark>
         <name>II: Rocky Fork Creek</name>
         <description><![CDATA[<img src="http://www.americanwhitewater.org//logo/AW_logo-Vert3Color_xsmall.gif"> <br> <A HREF="http://www.americanwhitewater.org//content/River/detail/id/1475/">AW Page for this reach</A>]]></description>
         <styleUrl>#style_high</styleUrl>
         <Point>
           <coordinates>-83.4373,39.1831,0</coordinates>
         </Point>
       </Placemark>	
	<Placemark>
         <name>I: Rocky Fork</name>
         <description><![CDATA[<img src="http://www.americanwhitewater.org//logo/AW_logo-Vert3Color_xsmall.gif"> <br> <A HREF="http://www.americanwhitewater.org//content/River/detail/id/1476/">AW Page for this reach</A>]]></description>
         <styleUrl>#style_</styleUrl>
         <Point>
           <coordinates>-82.3084,40.1504,0</coordinates>
         </Point>
       </Placemark>	
	<Placemark>
         <name>II-III: Rocky, N. Br. of the W. Br.</name>
         <description><![CDATA[<img src="http://www.americanwhitewater.org//logo/AW_logo-Vert3Color_xsmall.gif"> <br> <A HREF="http://www.americanwhitewater.org//content/River/detail/id/157/">AW Page for this reach</A>]]></description>
         <styleUrl>#style_low</styleUrl>
         <Point>
           <coordinates>-81.7951,41.182,0</coordinates>
         </Point>
       </Placemark>	
	<Placemark>
         <name>III: Rocky, W. Br.</name>
         <description><![CDATA[<img src="http://www.americanwhitewater.org//logo/AW_logo-Vert3Color_xsmall.gif"> <br> <A HREF="http://www.americanwhitewater.org//content/River/detail/id/10287/">AW Page for this reach</A>]]></description>
         <styleUrl>#style_low</styleUrl>
         <Point>
           <coordinates>-81.8857,41.1948,0</coordinates>
         </Point>
       </Placemark>	
	<Placemark>
         <name>II-III: Rocky, W.Br.</name>
         <description><![CDATA[<img src="http://www.americanwhitewater.org//logo/AW_logo-Vert3Color_xsmall.gif"> <br> <A HREF="http://www.americanwhitewater.org//content/River/detail/id/1474/">AW Page for this reach</A>]]></description>
         <styleUrl>#style_low</styleUrl>
         <Point>
           <coordinates>-81.9035,41.3506,0</coordinates>
         </Point>
       </Placemark>	
	<Placemark>
         <name>IV: Sagamore Creek</name>
         <description><![CDATA[<img src="http://www.americanwhitewater.org//logo/AW_logo-Vert3Color_xsmall.gif"> <br> <A HREF="http://www.americanwhitewater.org//content/River/detail/id/10703/">AW Page for this reach</A>]]></description>
         <styleUrl>#style_low</styleUrl>
         <Point>
           <coordinates>-81.5567,41.3522,0</coordinates>
         </Point>
       </Placemark>	
	<Placemark>
         <name>II-III: Sandusky</name>
         <description><![CDATA[<img src="http://www.americanwhitewater.org//logo/AW_logo-Vert3Color_xsmall.gif"> <br> <A HREF="http://www.americanwhitewater.org//content/River/detail/id/1477/">AW Page for this reach</A>]]></description>
         <styleUrl>#style_low</styleUrl>
         <Point>
           <coordinates>-83.1724,41.1237,0</coordinates>
         </Point>
       </Placemark>	
	<Placemark>
         <name>II(III): Sandusky</name>
         <description><![CDATA[<img src="http://www.americanwhitewater.org//logo/AW_logo-Vert3Color_xsmall.gif"> <br> <A HREF="http://www.americanwhitewater.org//content/River/detail/id/1478/">AW Page for this reach</A>]]></description>
         <styleUrl>#style_low</styleUrl>
         <Point>
           <coordinates>-83.1339,41.325,0</coordinates>
         </Point>
       </Placemark>	
	<Placemark>
         <name>IV: Scioto</name>
         <description><![CDATA[<img src="http://www.americanwhitewater.org//logo/AW_logo-Vert3Color_xsmall.gif"> <br> <A HREF="http://www.americanwhitewater.org//content/River/detail/id/3104/">AW Page for this reach</A>]]></description>
         <styleUrl>#style_</styleUrl>
         <Point>
           <coordinates>-83.1238,40.154,0</coordinates>
         </Point>
       </Placemark>	
	<Placemark>
         <name>II-III: Second Creek</name>
         <description><![CDATA[<img src="http://www.americanwhitewater.org//logo/AW_logo-Vert3Color_xsmall.gif"> <br> <A HREF="http://www.americanwhitewater.org//content/River/detail/id/3099/">AW Page for this reach</A>]]></description>
         <styleUrl>#style_</styleUrl>
         <Point>
           <coordinates>-84.0764,39.3139,0</coordinates>
         </Point>
       </Placemark>	
	<Placemark>
         <name>III-IV: Stonelick Creek</name>
         <description><![CDATA[<img src="http://www.americanwhitewater.org//logo/AW_logo-Vert3Color_xsmall.gif"> <br> <A HREF="http://www.americanwhitewater.org//content/River/detail/id/2634/">AW Page for this reach</A>]]></description>
         <styleUrl>#style_med</styleUrl>
         <Point>
           <coordinates>-84.1119,39.1784,0</coordinates>
         </Point>
       </Placemark>	
	<Placemark>
         <name>II: Stonelick Creek</name>
         <description><![CDATA[<img src="http://www.americanwhitewater.org//logo/AW_logo-Vert3Color_xsmall.gif"> <br> <A HREF="http://www.americanwhitewater.org//content/River/detail/id/10517/">AW Page for this reach</A>]]></description>
         <styleUrl>#style_med</styleUrl>
         <Point>
           <coordinates>-84.1499,39.1418,0</coordinates>
         </Point>
       </Placemark>	
	<Placemark>
         <name>II-III: Straight Creek</name>
         <description><![CDATA[<img src="http://www.americanwhitewater.org//logo/AW_logo-Vert3Color_xsmall.gif"> <br> <A HREF="http://www.americanwhitewater.org//content/River/detail/id/3808/">AW Page for this reach</A>]]></description>
         <styleUrl>#style_</styleUrl>
         <Point>
           <coordinates>-83.8409,38.8885,0</coordinates>
         </Point>
       </Placemark>	
	<Placemark>
         <name>IV-V: Tinker&#039;s Creek</name>
         <description><![CDATA[<img src="http://www.americanwhitewater.org//logo/AW_logo-Vert3Color_xsmall.gif"> <br> <A HREF="http://www.americanwhitewater.org//content/River/detail/id/1479/">AW Page for this reach</A>]]></description>
         <styleUrl>#style_low</styleUrl>
         <Point>
           <coordinates>-81.5244,41.3851,0</coordinates>
         </Point>
       </Placemark>	
	<Placemark>
         <name>I-II: Todd Fork</name>
         <description><![CDATA[<img src="http://www.americanwhitewater.org//logo/AW_logo-Vert3Color_xsmall.gif"> <br> <A HREF="http://www.americanwhitewater.org//content/River/detail/id/4488/">AW Page for this reach</A>]]></description>
         <styleUrl>#style_med</styleUrl>
         <Point>
           <coordinates>-84.1294,39.3544,0</coordinates>
         </Point>
       </Placemark>	
	<Placemark>
         <name>I(II): Vermilion</name>
         <description><![CDATA[<img src="http://www.americanwhitewater.org//logo/AW_logo-Vert3Color_xsmall.gif"> <br> <A HREF="http://www.americanwhitewater.org//content/River/detail/id/3139/">AW Page for this reach</A>]]></description>
         <styleUrl>#style_low</styleUrl>
         <Point>
           <coordinates>-82.4002,41.2572,0</coordinates>
         </Point>
       </Placemark>	
	<Placemark>
         <name>I(II): Vermilion</name>
         <description><![CDATA[<img src="http://www.americanwhitewater.org//logo/AW_logo-Vert3Color_xsmall.gif"> <br> <A HREF="http://www.americanwhitewater.org//content/River/detail/id/3140/">AW Page for this reach</A>]]></description>
         <styleUrl>#style_med</styleUrl>
         <Point>
           <coordinates>-82.3485,41.3333,0</coordinates>
         </Point>
       </Placemark>	
	<Placemark>
         <name>I: Vermilion</name>
         <description><![CDATA[<img src="http://www.americanwhitewater.org//logo/AW_logo-Vert3Color_xsmall.gif"> <br> <A HREF="http://www.americanwhitewater.org//content/River/detail/id/3141/">AW Page for this reach</A>]]></description>
         <styleUrl>#style_med</styleUrl>
         <Point>
           <coordinates>-82.3167,41.3822,0</coordinates>
         </Point>
       </Placemark>	
	<Placemark>
         <name>II+: Wakatomica Creek</name>
         <description><![CDATA[<img src="http://www.americanwhitewater.org//logo/AW_logo-Vert3Color_xsmall.gif"> <br> <A HREF="http://www.americanwhitewater.org//content/River/detail/id/2549/">AW Page for this reach</A>]]></description>
         <styleUrl>#style_med</styleUrl>
         <Point>
           <coordinates>-82.1273,40.108,0</coordinates>
         </Point>
       </Placemark>	
	<Placemark>
         <name>II-IV: White Oak Creek</name>
         <description><![CDATA[<img src="http://www.americanwhitewater.org//logo/AW_logo-Vert3Color_xsmall.gif"> <br> <A HREF="http://www.americanwhitewater.org//content/River/detail/id/1481/">AW Page for this reach</A>]]></description>
         <styleUrl>#style_</styleUrl>
         <Point>
           <coordinates>-83.9297,38.9185,0</coordinates>
         </Point>
       </Placemark>	
	<Placemark>
         <name>I: Whitewater</name>
         <description><![CDATA[<img src="http://www.americanwhitewater.org//logo/AW_logo-Vert3Color_xsmall.gif"> <br> <A HREF="http://www.americanwhitewater.org//content/River/detail/id/4657/">AW Page for this reach</A>]]></description>
         <styleUrl>#style_med</styleUrl>
         <Point>
           <coordinates>-85.1489,39.4498,0</coordinates>
         </Point>
       </Placemark>	
	<Placemark>
         <name>I-III: Wolf Creek</name>
         <description><![CDATA[<img src="http://www.americanwhitewater.org//logo/AW_logo-Vert3Color_xsmall.gif"> <br> <A HREF="http://www.americanwhitewater.org//content/River/detail/id/10529/">AW Page for this reach</A>]]></description>
         <styleUrl>#style_</styleUrl>
         <Point>
           <coordinates>-84.3282,39.7972,0</coordinates>
         </Point>
       </Placemark>	
	<Placemark>
         <name>II(III): Yellow Creek</name>
         <description><![CDATA[<img src="http://www.americanwhitewater.org//logo/AW_logo-Vert3Color_xsmall.gif"> <br> <A HREF="http://www.americanwhitewater.org//content/River/detail/id/2271/">AW Page for this reach</A>]]></description>
         <styleUrl>#style_</styleUrl>
         <Point>
           <coordinates>-81.6387,41.1576,0</coordinates>
         </Point>
       </Placemark></Document></kml>