

<kml xmlns="http://earth.google.com/kml/2.0"><Document><name>AW Rivers</name>	<Style id="style_">
		<IconStyle id="AWicon">
			<color>ff9c9c9c</color>
			<scale>0.6</scale>
			<Icon>
				<href>http://www.americanwhitewater.org//resources/images/maps/unknown.png</href>
			</Icon>
		</IconStyle>
		<LabelStyle>
			<color>ff9c9c9c</color>
		</LabelStyle>
	</Style>	<Style id="style_low">
		<IconStyle id="AWiconlow">
			<color>ff7fa7ff</color>
			<scale>0.6</scale>
			<Icon>
				<href>http://www.americanwhitewater.org//resources/images/maps/low.png</href>
			</Icon>
		</IconStyle>
		<LabelStyle>
			<color>ff7fa7ff</color>
		</LabelStyle>
	</Style>	<Style id="style_med">
		<IconStyle id="AWiconmed">
			<color>ff00ff55</color>
			<scale>0.6</scale>
			<Icon>
				<href>http://www.americanwhitewater.org//resources/images/maps/running.png</href>
			</Icon>
		</IconStyle>
		<LabelStyle>
			<color>ff00ff55</color>
		</LabelStyle>
	</Style>	<Style id="style_high">
		<IconStyle id="AWiconhigh">
			<color>ffffc500</color>
			<scale>0.6</scale>
			<Icon>
				<href>http://www.americanwhitewater.org//resources/images/maps/high.png</href>
			</Icon>
		</IconStyle>
		<LabelStyle>
			<color>ffffc500</color>
		</LabelStyle>
	</Style>	
	<Placemark>
         <name>II-III+: American</name>
         <description><![CDATA[<img src="http://www.americanwhitewater.org//logo/AW_logo-Vert3Color_xsmall.gif"> <br> <A HREF="http://www.americanwhitewater.org//content/River/detail/id/3476/">AW Page for this reach</A>]]></description>
         <styleUrl>#style_med</styleUrl>
         <Point>
           <coordinates>-121.387,46.9146,0</coordinates>
         </Point>
       </Placemark>	
	<Placemark>
         <name>III-IV: American</name>
         <description><![CDATA[<img src="http://www.americanwhitewater.org//logo/AW_logo-Vert3Color_xsmall.gif"> <br> <A HREF="http://www.americanwhitewater.org//content/River/detail/id/2062/">AW Page for this reach</A>]]></description>
         <styleUrl>#style_low</styleUrl>
         <Point>
           <coordinates>-121.267,46.9651,0</coordinates>
         </Point>
       </Placemark>	
	<Placemark>
         <name>II+(IV): Bacon Creek</name>
         <description><![CDATA[<img src="http://www.americanwhitewater.org//logo/AW_logo-Vert3Color_xsmall.gif"> <br> <A HREF="http://www.americanwhitewater.org//content/River/detail/id/2063/">AW Page for this reach</A>]]></description>
         <styleUrl>#style_med</styleUrl>
         <Point>
           <coordinates>-121.427,48.6504,0</coordinates>
         </Point>
       </Placemark>	
	<Placemark>
         <name>III-IV: Baker Creek</name>
         <description><![CDATA[<img src="http://www.americanwhitewater.org//logo/AW_logo-Vert3Color_xsmall.gif"> <br> <A HREF="http://www.americanwhitewater.org//content/River/detail/id/2065/">AW Page for this reach</A>]]></description>
         <styleUrl>#style_</styleUrl>
         <Point>
           <coordinates>-123.427,47.3198,0</coordinates>
         </Point>
       </Placemark>	
	<Placemark>
         <name>II: Baker River</name>
         <description><![CDATA[<img src="http://www.americanwhitewater.org//logo/AW_logo-Vert3Color_xsmall.gif"> <br> <A HREF="http://www.americanwhitewater.org//content/River/detail/id/2064/">AW Page for this reach</A>]]></description>
         <styleUrl>#style_</styleUrl>
         <Point>
           <coordinates>-121.545,48.7617,0</coordinates>
         </Point>
       </Placemark>	
	<Placemark>
         <name>II-III: Beckler</name>
         <description><![CDATA[<img src="http://www.americanwhitewater.org//logo/AW_logo-Vert3Color_xsmall.gif"> <br> <A HREF="http://www.americanwhitewater.org//content/River/detail/id/2066/">AW Page for this reach</A>]]></description>
         <styleUrl>#style_low</styleUrl>
         <Point>
           <coordinates>-121.293,47.8033,0</coordinates>
         </Point>
       </Placemark>	
	<Placemark>
         <name>III: Big Creek</name>
         <description><![CDATA[<img src="http://www.americanwhitewater.org//logo/AW_logo-Vert3Color_xsmall.gif"> <br> <A HREF="http://www.americanwhitewater.org//content/River/detail/id/2067/">AW Page for this reach</A>]]></description>
         <styleUrl>#style_</styleUrl>
         <Point>
           <coordinates>-123.642,47.3895,0</coordinates>
         </Point>
       </Placemark>	
	<Placemark>
         <name>V+: Big Quilcene</name>
         <description><![CDATA[<img src="http://www.americanwhitewater.org//logo/AW_logo-Vert3Color_xsmall.gif"> <br> <A HREF="http://www.americanwhitewater.org//content/River/detail/id/3315/">AW Page for this reach</A>]]></description>
         <styleUrl>#style_</styleUrl>
         <Point>
           <coordinates>-122.958,47.7813,0</coordinates>
         </Point>
       </Placemark>	
	<Placemark>
         <name>IV+: Big Quilcene</name>
         <description><![CDATA[<img src="http://www.americanwhitewater.org//logo/AW_logo-Vert3Color_xsmall.gif"> <br> <A HREF="http://www.americanwhitewater.org//content/River/detail/id/3316/">AW Page for this reach</A>]]></description>
         <styleUrl>#style_</styleUrl>
         <Point>
           <coordinates>-122.92,47.7734,0</coordinates>
         </Point>
       </Placemark>	
	<Placemark>
         <name>II(III): Big Sheep Creek</name>
         <description><![CDATA[<img src="http://www.americanwhitewater.org//logo/AW_logo-Vert3Color_xsmall.gif"> <br> <A HREF="http://www.americanwhitewater.org//content/River/detail/id/3490/">AW Page for this reach</A>]]></description>
         <styleUrl>#style_</styleUrl>
         <Point>
           <coordinates>-117.893,48.9519,0</coordinates>
         </Point>
       </Placemark>	
	<Placemark>
         <name>II: Bogachiel</name>
         <description><![CDATA[<img src="http://www.americanwhitewater.org//logo/AW_logo-Vert3Color_xsmall.gif"> <br> <A HREF="http://www.americanwhitewater.org//content/River/detail/id/3354/">AW Page for this reach</A>]]></description>
         <styleUrl>#style_high</styleUrl>
         <Point>
           <coordinates>-124.281,47.8783,0</coordinates>
         </Point>
       </Placemark>	
	<Placemark>
         <name>III-V(V+): Boulder</name>
         <description><![CDATA[<img src="http://www.americanwhitewater.org//logo/AW_logo-Vert3Color_xsmall.gif"> <br> <A HREF="http://www.americanwhitewater.org//content/River/detail/id/2068/">AW Page for this reach</A>]]></description>
         <styleUrl>#style_</styleUrl>
         <Point>
           <coordinates>-121.827,48.2465,0</coordinates>
         </Point>
       </Placemark>	
	<Placemark>
         <name>III-IV+(V): Box Canyon Creek</name>
         <description><![CDATA[<img src="http://www.americanwhitewater.org//logo/AW_logo-Vert3Color_xsmall.gif"> <br> <A HREF="http://www.americanwhitewater.org//content/River/detail/id/3818/">AW Page for this reach</A>]]></description>
         <styleUrl>#style_</styleUrl>
         <Point>
           <coordinates>-121.26,47.3791,0</coordinates>
         </Point>
       </Placemark>	
	<Placemark>
         <name>II: Bumping</name>
         <description><![CDATA[<img src="http://www.americanwhitewater.org//logo/AW_logo-Vert3Color_xsmall.gif"> <br> <A HREF="http://www.americanwhitewater.org//content/River/detail/id/2069/">AW Page for this reach</A>]]></description>
         <styleUrl>#style_</styleUrl>
         <Point>
           <coordinates>-121.292,46.8729,0</coordinates>
         </Point>
       </Placemark>	
	<Placemark>
         <name>II+: Bumping</name>
         <description><![CDATA[<img src="http://www.americanwhitewater.org//logo/AW_logo-Vert3Color_xsmall.gif"> <br> <A HREF="http://www.americanwhitewater.org//content/River/detail/id/3477/">AW Page for this reach</A>]]></description>
         <styleUrl>#style_low</styleUrl>
         <Point>
           <coordinates>-121.168,46.9779,0</coordinates>
         </Point>
       </Placemark>	
	<Placemark>
         <name>III: Butter Creek</name>
         <description><![CDATA[<img src="http://www.americanwhitewater.org//logo/AW_logo-Vert3Color_xsmall.gif"> <br> <A HREF="http://www.americanwhitewater.org//content/River/detail/id/3488/">AW Page for this reach</A>]]></description>
         <styleUrl>#style_</styleUrl>
         <Point>
           <coordinates>-121.706,46.6929,0</coordinates>
         </Point>
       </Placemark>	
	<Placemark>
         <name>II+: Calawah, N. Fork</name>
         <description><![CDATA[<img src="http://www.americanwhitewater.org//logo/AW_logo-Vert3Color_xsmall.gif"> <br> <A HREF="http://www.americanwhitewater.org//content/River/detail/id/2071/">AW Page for this reach</A>]]></description>
         <styleUrl>#style_</styleUrl>
         <Point>
           <coordinates>-124.211,48.0198,0</coordinates>
         </Point>
       </Placemark>	
	<Placemark>
         <name>III-IV: Calawah, S. Fork</name>
         <description><![CDATA[<img src="http://www.americanwhitewater.org//logo/AW_logo-Vert3Color_xsmall.gif"> <br> <A HREF="http://www.americanwhitewater.org//content/River/detail/id/2072/">AW Page for this reach</A>]]></description>
         <styleUrl>#style_low</styleUrl>
         <Point>
           <coordinates>-124.157,47.9168,0</coordinates>
         </Point>
       </Placemark>	
	<Placemark>
         <name>III: Calawah</name>
         <description><![CDATA[<img src="http://www.americanwhitewater.org//logo/AW_logo-Vert3Color_xsmall.gif"> <br> <A HREF="http://www.americanwhitewater.org//content/River/detail/id/2070/">AW Page for this reach</A>]]></description>
         <styleUrl>#style_low</styleUrl>
         <Point>
           <coordinates>-124.304,47.9623,0</coordinates>
         </Point>
       </Placemark>	
	<Placemark>
         <name>IV-V: Canyon Creek (Klickitat drainage)</name>
         <description><![CDATA[<img src="http://www.americanwhitewater.org//logo/AW_logo-Vert3Color_xsmall.gif"> <br> <A HREF="http://www.americanwhitewater.org//content/River/detail/id/3487/">AW Page for this reach</A>]]></description>
         <styleUrl>#style_</styleUrl>
         <Point>
           <coordinates>-121.052,45.9109,0</coordinates>
         </Point>
       </Placemark>	
	<Placemark>
         <name>IV+: Canyon Creek (Lewis River Trib.)</name>
         <description><![CDATA[<img src="http://www.americanwhitewater.org//logo/AW_logo-Vert3Color_xsmall.gif"> <br> <A HREF="http://www.americanwhitewater.org//content/River/detail/id/3066/">AW Page for this reach</A>]]></description>
         <styleUrl>#style_med</styleUrl>
         <Point>
           <coordinates>-122.316,45.94,0</coordinates>
         </Point>
       </Placemark>	
	<Placemark>
         <name>IV-V: Canyon Creek (Lewis River trib)</name>
         <description><![CDATA[<img src="http://www.americanwhitewater.org//logo/AW_logo-Vert3Color_xsmall.gif"> <br> <A HREF="http://www.americanwhitewater.org//content/River/detail/id/2073/">AW Page for this reach</A>]]></description>
         <styleUrl>#style_</styleUrl>
         <Point>
           <coordinates>-122.189,45.9044,0</coordinates>
         </Point>
       </Placemark>	
	<Placemark>
         <name>IV-V+: Canyon Creek (NF Nooksack)</name>
         <description><![CDATA[<img src="http://www.americanwhitewater.org//logo/AW_logo-Vert3Color_xsmall.gif"> <br> <A HREF="http://www.americanwhitewater.org//content/River/detail/id/4337/">AW Page for this reach</A>]]></description>
         <styleUrl>#style_</styleUrl>
         <Point>
           <coordinates>-121.95,48.933,0</coordinates>
         </Point>
       </Placemark>	
	<Placemark>
         <name>IV-V: Canyon Creek (S.F. Still. trib)</name>
         <description><![CDATA[<img src="http://www.americanwhitewater.org//logo/AW_logo-Vert3Color_xsmall.gif"> <br> <A HREF="http://www.americanwhitewater.org//content/River/detail/id/5038/">AW Page for this reach</A>]]></description>
         <styleUrl>#style_</styleUrl>
         <Point>
           <coordinates>-121.817,48.1579,0</coordinates>
         </Point>
       </Placemark>	
	<Placemark>
         <name>II+: Canyon Creek (S.F. Still. trib)</name>
         <description><![CDATA[<img src="http://www.americanwhitewater.org//logo/AW_logo-Vert3Color_xsmall.gif"> <br> <A HREF="http://www.americanwhitewater.org//content/River/detail/id/5037/">AW Page for this reach</A>]]></description>
         <styleUrl>#style_med</styleUrl>
         <Point>
           <coordinates>-121.905,48.1215,0</coordinates>
         </Point>
       </Placemark>	
	<Placemark>
         <name>IV-V: Canyon Creek (S.F. Still. trib)</name>
         <description><![CDATA[<img src="http://www.americanwhitewater.org//logo/AW_logo-Vert3Color_xsmall.gif"> <br> <A HREF="http://www.americanwhitewater.org//content/River/detail/id/2074/">AW Page for this reach</A>]]></description>
         <styleUrl>#style_med</styleUrl>
         <Point>
           <coordinates>-121.964,48.1149,0</coordinates>
         </Point>
       </Placemark>	
	<Placemark>
         <name>IV-V: Canyon Creek (Skagit trib.)</name>
         <description><![CDATA[<img src="http://www.americanwhitewater.org//logo/AW_logo-Vert3Color_xsmall.gif"> <br> <A HREF="http://www.americanwhitewater.org//content/River/detail/id/3486/">AW Page for this reach</A>]]></description>
         <styleUrl>#style_</styleUrl>
         <Point>
           <coordinates>-120.794,48.7571,0</coordinates>
         </Point>
       </Placemark>	
	<Placemark>
         <name>II: Canyon River (Satsop trib.)</name>
         <description><![CDATA[<img src="http://www.americanwhitewater.org//logo/AW_logo-Vert3Color_xsmall.gif"> <br> <A HREF="http://www.americanwhitewater.org//content/River/detail/id/3319/">AW Page for this reach</A>]]></description>
         <styleUrl>#style_</styleUrl>
         <Point>
           <coordinates>-123.507,47.3026,0</coordinates>
         </Point>
       </Placemark>	
	<Placemark>
         <name>V: Carbon</name>
         <description><![CDATA[<img src="http://www.americanwhitewater.org//logo/AW_logo-Vert3Color_xsmall.gif"> <br> <A HREF="http://www.americanwhitewater.org//content/River/detail/id/2075/">AW Page for this reach</A>]]></description>
         <styleUrl>#style_med</styleUrl>
         <Point>
           <coordinates>-122.012,47.011,0</coordinates>
         </Point>
       </Placemark>	
	<Placemark>
         <name>II: Carbon</name>
         <description><![CDATA[<img src="http://www.americanwhitewater.org//logo/AW_logo-Vert3Color_xsmall.gif"> <br> <A HREF="http://www.americanwhitewater.org//content/River/detail/id/2076/">AW Page for this reach</A>]]></description>
         <styleUrl>#style_low</styleUrl>
         <Point>
           <coordinates>-122.104,47.0973,0</coordinates>
         </Point>
       </Placemark>	
	<Placemark>
         <name>II: Cascade</name>
         <description><![CDATA[<img src="http://www.americanwhitewater.org//logo/AW_logo-Vert3Color_xsmall.gif"> <br> <A HREF="http://www.americanwhitewater.org//content/River/detail/id/3489/">AW Page for this reach</A>]]></description>
         <styleUrl>#style_med</styleUrl>
         <Point>
           <coordinates>-121.251,48.5013,0</coordinates>
         </Point>
       </Placemark>	
	<Placemark>
         <name>V: Cascade</name>
         <description><![CDATA[<img src="http://www.americanwhitewater.org//logo/AW_logo-Vert3Color_xsmall.gif"> <br> <A HREF="http://www.americanwhitewater.org//content/River/detail/id/2077/">AW Page for this reach</A>]]></description>
         <styleUrl>#style_low</styleUrl>
         <Point>
           <coordinates>-121.281,48.5306,0</coordinates>
         </Point>
       </Placemark>	
	<Placemark>
         <name>II-III(IV): Cedar Creek</name>
         <description><![CDATA[<img src="http://www.americanwhitewater.org//logo/AW_logo-Vert3Color_xsmall.gif"> <br> <A HREF="http://www.americanwhitewater.org//content/River/detail/id/3479/">AW Page for this reach</A>]]></description>
         <styleUrl>#style_</styleUrl>
         <Point>
           <coordinates>-122.451,45.9115,0</coordinates>
         </Point>
       </Placemark>	
	<Placemark>
         <name>II+: Cedar Creek</name>
         <description><![CDATA[<img src="http://www.americanwhitewater.org//logo/AW_logo-Vert3Color_xsmall.gif"> <br> <A HREF="http://www.americanwhitewater.org//content/River/detail/id/3482/">AW Page for this reach</A>]]></description>
         <styleUrl>#style_</styleUrl>
         <Point>
           <coordinates>-123.155,46.8951,0</coordinates>
         </Point>
       </Placemark>	
	<Placemark>
         <name>II: Cedar River</name>
         <description><![CDATA[<img src="http://www.americanwhitewater.org//logo/AW_logo-Vert3Color_xsmall.gif"> <br> <A HREF="http://www.americanwhitewater.org//content/River/detail/id/2078/">AW Page for this reach</A>]]></description>
         <styleUrl>#style_high</styleUrl>
         <Point>
           <coordinates>-121.972,47.3748,0</coordinates>
         </Point>
       </Placemark>	
	<Placemark>
         <name>III: Chehalis, E. Fork</name>
         <description><![CDATA[<img src="http://www.americanwhitewater.org//logo/AW_logo-Vert3Color_xsmall.gif"> <br> <A HREF="http://www.americanwhitewater.org//content/River/detail/id/3478/">AW Page for this reach</A>]]></description>
         <styleUrl>#style_</styleUrl>
         <Point>
           <coordinates>-123.262,46.4286,0</coordinates>
         </Point>
       </Placemark>	
	<Placemark>
         <name>III-IV: Chehalis, W. Fork</name>
         <description><![CDATA[<img src="http://www.americanwhitewater.org//logo/AW_logo-Vert3Color_xsmall.gif"> <br> <A HREF="http://www.americanwhitewater.org//content/River/detail/id/2080/">AW Page for this reach</A>]]></description>
         <styleUrl>#style_low</styleUrl>
         <Point>
           <coordinates>-123.331,46.4449,0</coordinates>
         </Point>
       </Placemark>	
	<Placemark>
         <name>III-IV: Chehalis</name>
         <description><![CDATA[<img src="http://www.americanwhitewater.org//logo/AW_logo-Vert3Color_xsmall.gif"> <br> <A HREF="http://www.americanwhitewater.org//content/River/detail/id/2081/">AW Page for this reach</A>]]></description>
         <styleUrl>#style_med</styleUrl>
         <Point>
           <coordinates>-123.293,46.4513,0</coordinates>
         </Point>
       </Placemark>	
	<Placemark>
         <name>II: Chehalis</name>
         <description><![CDATA[<img src="http://www.americanwhitewater.org//logo/AW_logo-Vert3Color_xsmall.gif"> <br> <A HREF="http://www.americanwhitewater.org//content/River/detail/id/2082/">AW Page for this reach</A>]]></description>
         <styleUrl>#style_med</styleUrl>
         <Point>
           <coordinates>-123.304,46.5722,0</coordinates>
         </Point>
       </Placemark>	
	<Placemark>
         <name>II: Chehalis</name>
         <description><![CDATA[<img src="http://www.americanwhitewater.org//logo/AW_logo-Vert3Color_xsmall.gif"> <br> <A HREF="http://www.americanwhitewater.org//content/River/detail/id/2079/">AW Page for this reach</A>]]></description>
         <styleUrl>#style_med</styleUrl>
         <Point>
           <coordinates>-123.23,46.6308,0</coordinates>
         </Point>
       </Placemark>	
	<Placemark>
         <name>V: Chelan</name>
         <description><![CDATA[<img src="http://www.americanwhitewater.org//logo/AW_logo-Vert3Color_xsmall.gif"> <br> <A HREF="http://www.americanwhitewater.org//content/River/detail/id/3144/">AW Page for this reach</A>]]></description>
         <styleUrl>#style_</styleUrl>
         <Point>
           <coordinates>-120.011,47.8337,0</coordinates>
         </Point>
       </Placemark>	
	<Placemark>
         <name>IV-V: Chewuch</name>
         <description><![CDATA[<img src="http://www.americanwhitewater.org//logo/AW_logo-Vert3Color_xsmall.gif"> <br> <A HREF="http://www.americanwhitewater.org//content/River/detail/id/2083/">AW Page for this reach</A>]]></description>
         <styleUrl>#style_low</styleUrl>
         <Point>
           <coordinates>-120.108,48.7825,0</coordinates>
         </Point>
       </Placemark>	
	<Placemark>
         <name>III: Chewuch</name>
         <description><![CDATA[<img src="http://www.americanwhitewater.org//logo/AW_logo-Vert3Color_xsmall.gif"> <br> <A HREF="http://www.americanwhitewater.org//content/River/detail/id/2084/">AW Page for this reach</A>]]></description>
         <styleUrl>#style_low</styleUrl>
         <Point>
           <coordinates>-120.125,48.7154,0</coordinates>
         </Point>
       </Placemark>	
	<Placemark>
         <name>II+(IV): Chewuch</name>
         <description><![CDATA[<img src="http://www.americanwhitewater.org//logo/AW_logo-Vert3Color_xsmall.gif"> <br> <A HREF="http://www.americanwhitewater.org//content/River/detail/id/2085/">AW Page for this reach</A>]]></description>
         <styleUrl>#style_low</styleUrl>
         <Point>
           <coordinates>-120.178,48.5645,0</coordinates>
         </Point>
       </Placemark>	
	<Placemark>
         <name>IV-V: Chinook Creek</name>
         <description><![CDATA[<img src="http://www.americanwhitewater.org//logo/AW_logo-Vert3Color_xsmall.gif"> <br> <A HREF="http://www.americanwhitewater.org//content/River/detail/id/3484/">AW Page for this reach</A>]]></description>
         <styleUrl>#style_</styleUrl>
         <Point>
           <coordinates>-121.54,46.8349,0</coordinates>
         </Point>
       </Placemark>	
	<Placemark>
         <name>II: Chiwawa</name>
         <description><![CDATA[<img src="http://www.americanwhitewater.org//logo/AW_logo-Vert3Color_xsmall.gif"> <br> <A HREF="http://www.americanwhitewater.org//content/River/detail/id/2086/">AW Page for this reach</A>]]></description>
         <styleUrl>#style_</styleUrl>
         <Point>
           <coordinates>-120.803,47.9736,0</coordinates>
         </Point>
       </Placemark>	
	<Placemark>
         <name>III: Chiwawa</name>
         <description><![CDATA[<img src="http://www.americanwhitewater.org//logo/AW_logo-Vert3Color_xsmall.gif"> <br> <A HREF="http://www.americanwhitewater.org//content/River/detail/id/2087/">AW Page for this reach</A>]]></description>
         <styleUrl>#style_low</styleUrl>
         <Point>
           <coordinates>-120.714,47.8974,0</coordinates>
         </Point>
       </Placemark>	
	<Placemark>
         <name>II+(IV): Christmas Creek</name>
         <description><![CDATA[<img src="http://www.americanwhitewater.org//logo/AW_logo-Vert3Color_xsmall.gif"> <br> <A HREF="http://www.americanwhitewater.org//content/River/detail/id/2088/">AW Page for this reach</A>]]></description>
         <styleUrl>#style_</styleUrl>
         <Point>
           <coordinates>-124.215,47.7101,0</coordinates>
         </Point>
       </Placemark>	
	<Placemark>
         <name>IV-V: Cispus, N. Fork</name>
         <description><![CDATA[<img src="http://www.americanwhitewater.org//logo/AW_logo-Vert3Color_xsmall.gif"> <br> <A HREF="http://www.americanwhitewater.org//content/River/detail/id/2092/">AW Page for this reach</A>]]></description>
         <styleUrl>#style_</styleUrl>
         <Point>
           <coordinates>-121.665,46.4369,0</coordinates>
         </Point>
       </Placemark>	
	<Placemark>
         <name>V: Cispus</name>
         <description><![CDATA[<img src="http://www.americanwhitewater.org//logo/AW_logo-Vert3Color_xsmall.gif"> <br> <A HREF="http://www.americanwhitewater.org//content/River/detail/id/3404/">AW Page for this reach</A>]]></description>
         <styleUrl>#style_low</styleUrl>
         <Point>
           <coordinates>-121.51,46.4595,0</coordinates>
         </Point>
       </Placemark>	
	<Placemark>
         <name>V+: Cispus</name>
         <description><![CDATA[<img src="http://www.americanwhitewater.org//logo/AW_logo-Vert3Color_xsmall.gif"> <br> <A HREF="http://www.americanwhitewater.org//content/River/detail/id/2089/">AW Page for this reach</A>]]></description>
         <styleUrl>#style_high</styleUrl>
         <Point>
           <coordinates>-121.659,46.3358,0</coordinates>
         </Point>
       </Placemark>	
	<Placemark>
         <name>III+(IV): Cispus</name>
         <description><![CDATA[<img src="http://www.americanwhitewater.org//logo/AW_logo-Vert3Color_xsmall.gif"> <br> <A HREF="http://www.americanwhitewater.org//content/River/detail/id/2090/">AW Page for this reach</A>]]></description>
         <styleUrl>#style_med</styleUrl>
         <Point>
           <coordinates>-121.736,46.375,0</coordinates>
         </Point>
       </Placemark>	
	<Placemark>
         <name>III: Cispus</name>
         <description><![CDATA[<img src="http://www.americanwhitewater.org//logo/AW_logo-Vert3Color_xsmall.gif"> <br> <A HREF="http://www.americanwhitewater.org//content/River/detail/id/2091/">AW Page for this reach</A>]]></description>
         <styleUrl>#style_med</styleUrl>
         <Point>
           <coordinates>-121.84,46.444,0</coordinates>
         </Point>
       </Placemark>	
	<Placemark>
         <name>IV-V: Cle Elum</name>
         <description><![CDATA[<img src="http://www.americanwhitewater.org//logo/AW_logo-Vert3Color_xsmall.gif"> <br> <A HREF="http://www.americanwhitewater.org//content/River/detail/id/2093/">AW Page for this reach</A>]]></description>
         <styleUrl>#style_</styleUrl>
         <Point>
           <coordinates>-121.048,47.4664,0</coordinates>
         </Point>
       </Placemark>	
	<Placemark>
         <name>II: Cle Elum</name>
         <description><![CDATA[<img src="http://www.americanwhitewater.org//logo/AW_logo-Vert3Color_xsmall.gif"> <br> <A HREF="http://www.americanwhitewater.org//content/River/detail/id/2094/">AW Page for this reach</A>]]></description>
         <styleUrl>#style_</styleUrl>
         <Point>
           <coordinates>-121.097,47.4032,0</coordinates>
         </Point>
       </Placemark>	
	<Placemark>
         <name>II: Cle Elum</name>
         <description><![CDATA[<img src="http://www.americanwhitewater.org//logo/AW_logo-Vert3Color_xsmall.gif"> <br> <A HREF="http://www.americanwhitewater.org//content/River/detail/id/2095/">AW Page for this reach</A>]]></description>
         <styleUrl>#style_low</styleUrl>
         <Point>
           <coordinates>-121.064,47.2407,0</coordinates>
         </Point>
       </Placemark>	
	<Placemark>
         <name>IV: Clear Creek</name>
         <description><![CDATA[<img src="http://www.americanwhitewater.org//logo/AW_logo-Vert3Color_xsmall.gif"> <br> <A HREF="http://www.americanwhitewater.org//content/River/detail/id/3470/">AW Page for this reach</A>]]></description>
         <styleUrl>#style_</styleUrl>
         <Point>
           <coordinates>-121.602,48.1603,0</coordinates>
         </Point>
       </Placemark>	
	<Placemark>
         <name>V: Clearwater (MF Nooksack trib.)</name>
         <description><![CDATA[<img src="http://www.americanwhitewater.org//logo/AW_logo-Vert3Color_xsmall.gif"> <br> <A HREF="http://www.americanwhitewater.org//content/River/detail/id/3583/">AW Page for this reach</A>]]></description>
         <styleUrl>#style_low</styleUrl>
         <Point>
           <coordinates>-122.023,48.7892,0</coordinates>
         </Point>
       </Placemark>	
	<Placemark>
         <name>III: Clearwater (White River trib.)</name>
         <description><![CDATA[<img src="http://www.americanwhitewater.org//logo/AW_logo-Vert3Color_xsmall.gif"> <br> <A HREF="http://www.americanwhitewater.org//content/River/detail/id/2099/">AW Page for this reach</A>]]></description>
         <styleUrl>#style_</styleUrl>
         <Point>
           <coordinates>-121.801,47.1269,0</coordinates>
         </Point>
       </Placemark>	
	<Placemark>
         <name>III-IV: Clearwater</name>
         <description><![CDATA[<img src="http://www.americanwhitewater.org//logo/AW_logo-Vert3Color_xsmall.gif"> <br> <A HREF="http://www.americanwhitewater.org//content/River/detail/id/2096/">AW Page for this reach</A>]]></description>
         <styleUrl>#style_</styleUrl>
         <Point>
           <coordinates>-123.997,47.7337,0</coordinates>
         </Point>
       </Placemark>	
	<Placemark>
         <name>II: Clearwater</name>
         <description><![CDATA[<img src="http://www.americanwhitewater.org//logo/AW_logo-Vert3Color_xsmall.gif"> <br> <A HREF="http://www.americanwhitewater.org//content/River/detail/id/2097/">AW Page for this reach</A>]]></description>
         <styleUrl>#style_</styleUrl>
         <Point>
           <coordinates>-124.119,47.6774,0</coordinates>
         </Point>
       </Placemark>	
	<Placemark>
         <name>II: Clearwater</name>
         <description><![CDATA[<img src="http://www.americanwhitewater.org//logo/AW_logo-Vert3Color_xsmall.gif"> <br> <A HREF="http://www.americanwhitewater.org//content/River/detail/id/2098/">AW Page for this reach</A>]]></description>
         <styleUrl>#style_</styleUrl>
         <Point>
           <coordinates>-124.237,47.6428,0</coordinates>
         </Point>
       </Placemark>	
	<Placemark>
         <name>III+(IV): Coal Creek</name>
         <description><![CDATA[<img src="http://www.americanwhitewater.org//logo/AW_logo-Vert3Color_xsmall.gif"> <br> <A HREF="http://www.americanwhitewater.org//content/River/detail/id/3475/">AW Page for this reach</A>]]></description>
         <styleUrl>#style_</styleUrl>
         <Point>
           <coordinates>-123.039,46.2323,0</coordinates>
         </Point>
       </Placemark>	
	<Placemark>
         <name>IV-V: Cooper River</name>
         <description><![CDATA[<img src="http://www.americanwhitewater.org//logo/AW_logo-Vert3Color_xsmall.gif"> <br> <A HREF="http://www.americanwhitewater.org//content/River/detail/id/2100/">AW Page for this reach</A>]]></description>
         <styleUrl>#style_</styleUrl>
         <Point>
           <coordinates>-121.138,47.4193,0</coordinates>
         </Point>
       </Placemark>	
	<Placemark>
         <name>IV-V: Copper Creek</name>
         <description><![CDATA[<img src="http://www.americanwhitewater.org//logo/AW_logo-Vert3Color_xsmall.gif"> <br> <A HREF="http://www.americanwhitewater.org//content/River/detail/id/3514/">AW Page for this reach</A>]]></description>
         <styleUrl>#style_</styleUrl>
         <Point>
           <coordinates>-122.214,45.7847,0</coordinates>
         </Point>
       </Placemark>	
	<Placemark>
         <name>II-III(IV): Coweeman River</name>
         <description><![CDATA[<img src="http://www.americanwhitewater.org//logo/AW_logo-Vert3Color_xsmall.gif"> <br> <A HREF="http://www.americanwhitewater.org//content/River/detail/id/3480/">AW Page for this reach</A>]]></description>
         <styleUrl>#style_low</styleUrl>
         <Point>
           <coordinates>-122.586,46.1506,0</coordinates>
         </Point>
       </Placemark>	
	<Placemark>
         <name>V+: Cowlitz, Clear Fork</name>
         <description><![CDATA[<img src="http://www.americanwhitewater.org//logo/AW_logo-Vert3Color_xsmall.gif"> <br> <A HREF="http://www.americanwhitewater.org//content/River/detail/id/3194/">AW Page for this reach</A>]]></description>
         <styleUrl>#style_med</styleUrl>
         <Point>
           <coordinates>-121.506,46.6689,0</coordinates>
         </Point>
       </Placemark>	
	<Placemark>
         <name>V: Cowlitz, Muddy Fork</name>
         <description><![CDATA[<img src="http://www.americanwhitewater.org//logo/AW_logo-Vert3Color_xsmall.gif"> <br> <A HREF="http://www.americanwhitewater.org//content/River/detail/id/3483/">AW Page for this reach</A>]]></description>
         <styleUrl>#style_</styleUrl>
         <Point>
           <coordinates>-121.63,46.7561,0</coordinates>
         </Point>
       </Placemark>	
	<Placemark>
         <name>II: Cowlitz</name>
         <description><![CDATA[<img src="http://www.americanwhitewater.org//logo/AW_logo-Vert3Color_xsmall.gif"> <br> <A HREF="http://www.americanwhitewater.org//content/River/detail/id/2102/">AW Page for this reach</A>]]></description>
         <styleUrl>#style_high</styleUrl>
         <Point>
           <coordinates>-121.614,46.6658,0</coordinates>
         </Point>
       </Placemark>	
	<Placemark>
         <name>III: Cowlitz</name>
         <description><![CDATA[<img src="http://www.americanwhitewater.org//logo/AW_logo-Vert3Color_xsmall.gif"> <br> <A HREF="http://www.americanwhitewater.org//content/River/detail/id/2101/">AW Page for this reach</A>]]></description>
         <styleUrl>#style_</styleUrl>
         <Point>
           <coordinates>-122.08,46.4843,0</coordinates>
         </Point>
       </Placemark>	
	<Placemark>
         <name>I-II: Cowlitz</name>
         <description><![CDATA[<img src="http://www.americanwhitewater.org//logo/AW_logo-Vert3Color_xsmall.gif"> <br> <A HREF="http://www.americanwhitewater.org//content/River/detail/id/3481/">AW Page for this reach</A>]]></description>
         <styleUrl>#style_high</styleUrl>
         <Point>
           <coordinates>-122.638,46.516,0</coordinates>
         </Point>
       </Placemark>	
	<Placemark>
         <name>IV-V(V+): Day Creek</name>
         <description><![CDATA[<img src="http://www.americanwhitewater.org//logo/AW_logo-Vert3Color_xsmall.gif"> <br> <A HREF="http://www.americanwhitewater.org//content/River/detail/id/3522/">AW Page for this reach</A>]]></description>
         <styleUrl>#style_</styleUrl>
         <Point>
           <coordinates>-122.007,48.4419,0</coordinates>
         </Point>
       </Placemark>	
	<Placemark>
         <name>V+: Deception Creek</name>
         <description><![CDATA[<img src="http://www.americanwhitewater.org//logo/AW_logo-Vert3Color_xsmall.gif"> <br> <A HREF="http://www.americanwhitewater.org//content/River/detail/id/3168/">AW Page for this reach</A>]]></description>
         <styleUrl>#style_</styleUrl>
         <Point>
           <coordinates>-121.191,47.6499,0</coordinates>
         </Point>
       </Placemark>	
	<Placemark>
         <name>IV-V+: Deer Creek</name>
         <description><![CDATA[<img src="http://www.americanwhitewater.org//logo/AW_logo-Vert3Color_xsmall.gif"> <br> <A HREF="http://www.americanwhitewater.org//content/River/detail/id/2103/">AW Page for this reach</A>]]></description>
         <styleUrl>#style_</styleUrl>
         <Point>
           <coordinates>-121.909,48.3617,0</coordinates>
         </Point>
       </Placemark>	
	<Placemark>
         <name>II: Deschutes</name>
         <description><![CDATA[<img src="http://www.americanwhitewater.org//logo/AW_logo-Vert3Color_xsmall.gif"> <br> <A HREF="http://www.americanwhitewater.org//content/River/detail/id/3068/">AW Page for this reach</A>]]></description>
         <styleUrl>#style_med</styleUrl>
         <Point>
           <coordinates>-122.557,46.8325,0</coordinates>
         </Point>
       </Placemark>	
	<Placemark>
         <name>V+: Dingford Creek</name>
         <description><![CDATA[<img src="http://www.americanwhitewater.org//logo/AW_logo-Vert3Color_xsmall.gif"> <br> <A HREF="http://www.americanwhitewater.org//content/River/detail/id/3407/">AW Page for this reach</A>]]></description>
         <styleUrl>#style_</styleUrl>
         <Point>
           <coordinates>-121.431,47.5228,0</coordinates>
         </Point>
       </Placemark>	
	<Placemark>
         <name>I-III+: Donkey Creek</name>
         <description><![CDATA[<img src="http://www.americanwhitewater.org//logo/AW_logo-Vert3Color_xsmall.gif"> <br> <A HREF="http://www.americanwhitewater.org//content/River/detail/id/3305/">AW Page for this reach</A>]]></description>
         <styleUrl>#style_</styleUrl>
         <Point>
           <coordinates>-123.805,47.3295,0</coordinates>
         </Point>
       </Placemark>	
	<Placemark>
         <name>V+: Dosewallips</name>
         <description><![CDATA[<img src="http://www.americanwhitewater.org//logo/AW_logo-Vert3Color_xsmall.gif"> <br> <A HREF="http://www.americanwhitewater.org//content/River/detail/id/2104/">AW Page for this reach</A>]]></description>
         <styleUrl>#style_</styleUrl>
         <Point>
           <coordinates>-123.151,47.7321,0</coordinates>
         </Point>
       </Placemark>	
	<Placemark>
         <name>III-IV+: Dosewallips</name>
         <description><![CDATA[<img src="http://www.americanwhitewater.org//logo/AW_logo-Vert3Color_xsmall.gif"> <br> <A HREF="http://www.americanwhitewater.org//content/River/detail/id/2106/">AW Page for this reach</A>]]></description>
         <styleUrl>#style_</styleUrl>
         <Point>
           <coordinates>-123.086,47.7307,0</coordinates>
         </Point>
       </Placemark>	
	<Placemark>
         <name>II-III: Dosewallips</name>
         <description><![CDATA[<img src="http://www.americanwhitewater.org//logo/AW_logo-Vert3Color_xsmall.gif"> <br> <A HREF="http://www.americanwhitewater.org//content/River/detail/id/2107/">AW Page for this reach</A>]]></description>
         <styleUrl>#style_</styleUrl>
         <Point>
           <coordinates>-123.001,47.7216,0</coordinates>
         </Point>
       </Placemark>	
	<Placemark>
         <name>III-IV: Downey Creek</name>
         <description><![CDATA[<img src="http://www.americanwhitewater.org//logo/AW_logo-Vert3Color_xsmall.gif"> <br> <A HREF="http://www.americanwhitewater.org//content/River/detail/id/3687/">AW Page for this reach</A>]]></description>
         <styleUrl>#style_</styleUrl>
         <Point>
           <coordinates>-121.217,48.2712,0</coordinates>
         </Point>
       </Placemark>	
	<Placemark>
         <name>IV: Duckabush</name>
         <description><![CDATA[<img src="http://www.americanwhitewater.org//logo/AW_logo-Vert3Color_xsmall.gif"> <br> <A HREF="http://www.americanwhitewater.org//content/River/detail/id/2108/">AW Page for this reach</A>]]></description>
         <styleUrl>#style_</styleUrl>
         <Point>
           <coordinates>-123.041,47.6825,0</coordinates>
         </Point>
       </Placemark>	
	<Placemark>
         <name>III-IV: Dungeness</name>
         <description><![CDATA[<img src="http://www.americanwhitewater.org//logo/AW_logo-Vert3Color_xsmall.gif"> <br> <A HREF="http://www.americanwhitewater.org//content/River/detail/id/2109/">AW Page for this reach</A>]]></description>
         <styleUrl>#style_low</styleUrl>
         <Point>
           <coordinates>-123.094,47.9418,0</coordinates>
         </Point>
       </Placemark>	
	<Placemark>
         <name>III: Dungeness</name>
         <description><![CDATA[<img src="http://www.americanwhitewater.org//logo/AW_logo-Vert3Color_xsmall.gif"> <br> <A HREF="http://www.americanwhitewater.org//content/River/detail/id/2110/">AW Page for this reach</A>]]></description>
         <styleUrl>#style_low</styleUrl>
         <Point>
           <coordinates>-123.111,47.9763,0</coordinates>
         </Point>
       </Placemark>	
	<Placemark>
         <name>I-II: Duwamish</name>
         <description><![CDATA[<img src="http://www.americanwhitewater.org//logo/AW_logo-Vert3Color_xsmall.gif"> <br> <A HREF="http://www.americanwhitewater.org//content/River/detail/id/3798/">AW Page for this reach</A>]]></description>
         <styleUrl>#style_med</styleUrl>
         <Point>
           <coordinates>-122.297,47.5033,0</coordinates>
         </Point>
       </Placemark>	
	<Placemark>
         <name>II-III+: Elochoman</name>
         <description><![CDATA[<img src="http://www.americanwhitewater.org//logo/AW_logo-Vert3Color_xsmall.gif"> <br> <A HREF="http://www.americanwhitewater.org//content/River/detail/id/3494/">AW Page for this reach</A>]]></description>
         <styleUrl>#style_</styleUrl>
         <Point>
           <coordinates>-123.244,46.3488,0</coordinates>
         </Point>
       </Placemark>	
	<Placemark>
         <name>V: Elwha</name>
         <description><![CDATA[<img src="http://www.americanwhitewater.org//logo/AW_logo-Vert3Color_xsmall.gif"> <br> <A HREF="http://www.americanwhitewater.org//content/River/detail/id/2111/">AW Page for this reach</A>]]></description>
         <styleUrl>#style_</styleUrl>
         <Point>
           <coordinates>-123.491,47.9062,0</coordinates>
         </Point>
       </Placemark>	
	<Placemark>
         <name>II-III(IV): Elwha</name>
         <description><![CDATA[<img src="http://www.americanwhitewater.org//logo/AW_logo-Vert3Color_xsmall.gif"> <br> <A HREF="http://www.americanwhitewater.org//content/River/detail/id/2112/">AW Page for this reach</A>]]></description>
         <styleUrl>#style_med</styleUrl>
         <Point>
           <coordinates>-123.599,48.0042,0</coordinates>
         </Point>
       </Placemark>	
	<Placemark>
         <name>II-III(IV): Elwha</name>
         <description><![CDATA[<img src="http://www.americanwhitewater.org//logo/AW_logo-Vert3Color_xsmall.gif"> <br> <A HREF="http://www.americanwhitewater.org//content/River/detail/id/2113/">AW Page for this reach</A>]]></description>
         <styleUrl>#style_med</styleUrl>
         <Point>
           <coordinates>-123.577,48.0655,0</coordinates>
         </Point>
       </Placemark>	
	<Placemark>
         <name>III-IV(V+): Entiat</name>
         <description><![CDATA[<img src="http://www.americanwhitewater.org//logo/AW_logo-Vert3Color_xsmall.gif"> <br> <A HREF="http://www.americanwhitewater.org//content/River/detail/id/2115/">AW Page for this reach</A>]]></description>
         <styleUrl>#style_low</styleUrl>
         <Point>
           <coordinates>-120.644,48.0223,0</coordinates>
         </Point>
       </Placemark>	
	<Placemark>
         <name>III-IV(V+): Entiat</name>
         <description><![CDATA[<img src="http://www.americanwhitewater.org//logo/AW_logo-Vert3Color_xsmall.gif"> <br> <A HREF="http://www.americanwhitewater.org//content/River/detail/id/3523/">AW Page for this reach</A>]]></description>
         <styleUrl>#style_low</styleUrl>
         <Point>
           <coordinates>-120.551,47.9649,0</coordinates>
         </Point>
       </Placemark>	
	<Placemark>
         <name>IV+: Entiat</name>
         <description><![CDATA[<img src="http://www.americanwhitewater.org//logo/AW_logo-Vert3Color_xsmall.gif"> <br> <A HREF="http://www.americanwhitewater.org//content/River/detail/id/2114/">AW Page for this reach</A>]]></description>
         <styleUrl>#style_low</styleUrl>
         <Point>
           <coordinates>-120.514,47.9262,0</coordinates>
         </Point>
       </Placemark>	
	<Placemark>
         <name>II+: Entiat</name>
         <description><![CDATA[<img src="http://www.americanwhitewater.org//logo/AW_logo-Vert3Color_xsmall.gif"> <br> <A HREF="http://www.americanwhitewater.org//content/River/detail/id/2116/">AW Page for this reach</A>]]></description>
         <styleUrl>#style_low</styleUrl>
         <Point>
           <coordinates>-120.366,47.7654,0</coordinates>
         </Point>
       </Placemark>	
	<Placemark>
         <name>V: Finney Creek</name>
         <description><![CDATA[<img src="http://www.americanwhitewater.org//logo/AW_logo-Vert3Color_xsmall.gif"> <br> <A HREF="http://www.americanwhitewater.org//content/River/detail/id/2117/">AW Page for this reach</A>]]></description>
         <styleUrl>#style_</styleUrl>
         <Point>
           <coordinates>-121.792,48.4059,0</coordinates>
         </Point>
       </Placemark>	
	<Placemark>
         <name>V+: Fly Creek</name>
         <description><![CDATA[<img src="http://www.americanwhitewater.org//logo/AW_logo-Vert3Color_xsmall.gif"> <br> <A HREF="http://www.americanwhitewater.org//content/River/detail/id/3524/">AW Page for this reach</A>]]></description>
         <styleUrl>#style_</styleUrl>
         <Point>
           <coordinates>-122.285,45.888,0</coordinates>
         </Point>
       </Placemark>	
	<Placemark>
         <name>IV+: Foss</name>
         <description><![CDATA[<img src="http://www.americanwhitewater.org//logo/AW_logo-Vert3Color_xsmall.gif"> <br> <A HREF="http://www.americanwhitewater.org//content/River/detail/id/2118/">AW Page for this reach</A>]]></description>
         <styleUrl>#style_low</styleUrl>
         <Point>
           <coordinates>-121.295,47.6731,0</coordinates>
         </Point>
       </Placemark>	
	<Placemark>
         <name>III+: Germany Creek</name>
         <description><![CDATA[<img src="http://www.americanwhitewater.org//logo/AW_logo-Vert3Color_xsmall.gif"> <br> <A HREF="http://www.americanwhitewater.org//content/River/detail/id/3493/">AW Page for this reach</A>]]></description>
         <styleUrl>#style_</styleUrl>
         <Point>
           <coordinates>-123.131,46.2667,0</coordinates>
         </Point>
       </Placemark>	
	<Placemark>
         <name>III-IV: Glacier Creek</name>
         <description><![CDATA[<img src="http://www.americanwhitewater.org//logo/AW_logo-Vert3Color_xsmall.gif"> <br> <A HREF="http://www.americanwhitewater.org//content/River/detail/id/4204/">AW Page for this reach</A>]]></description>
         <styleUrl>#style_</styleUrl>
         <Point>
           <coordinates>-121.903,48.8548,0</coordinates>
         </Point>
       </Placemark>	
	<Placemark>
         <name>III: Goble Creek</name>
         <description><![CDATA[<img src="http://www.americanwhitewater.org//logo/AW_logo-Vert3Color_xsmall.gif"> <br> <A HREF="http://www.americanwhitewater.org//content/River/detail/id/3525/">AW Page for this reach</A>]]></description>
         <styleUrl>#style_</styleUrl>
         <Point>
           <coordinates>-122.744,46.1243,0</coordinates>
         </Point>
       </Placemark>	
	<Placemark>
         <name>III+(V): Goodman Creek</name>
         <description><![CDATA[<img src="http://www.americanwhitewater.org//logo/AW_logo-Vert3Color_xsmall.gif"> <br> <A HREF="http://www.americanwhitewater.org//content/River/detail/id/2119/">AW Page for this reach</A>]]></description>
         <styleUrl>#style_</styleUrl>
         <Point>
           <coordinates>-123.983,48.0366,0</coordinates>
         </Point>
       </Placemark>	
	<Placemark>
         <name>II-III: Grande Ronde</name>
         <description><![CDATA[<img src="http://www.americanwhitewater.org//logo/AW_logo-Vert3Color_xsmall.gif"> <br> <A HREF="http://www.americanwhitewater.org//content/River/detail/id/2120/">AW Page for this reach</A>]]></description>
         <styleUrl>#style_</styleUrl>
         <Point>
           <coordinates>-117.45,45.9452,0</coordinates>
         </Point>
       </Placemark>	
	<Placemark>
         <name>IV-V(V+): Granite Creek</name>
         <description><![CDATA[<img src="http://www.americanwhitewater.org//logo/AW_logo-Vert3Color_xsmall.gif"> <br> <A HREF="http://www.americanwhitewater.org//content/River/detail/id/3496/">AW Page for this reach</A>]]></description>
         <styleUrl>#style_</styleUrl>
         <Point>
           <coordinates>-120.841,48.6261,0</coordinates>
         </Point>
       </Placemark>	
	<Placemark>
         <name>IV: Granite Creek</name>
         <description><![CDATA[<img src="http://www.americanwhitewater.org//logo/AW_logo-Vert3Color_xsmall.gif"> <br> <A HREF="http://www.americanwhitewater.org//content/River/detail/id/2189/">AW Page for this reach</A>]]></description>
         <styleUrl>#style_low</styleUrl>
         <Point>
           <coordinates>-120.89,48.6893,0</coordinates>
         </Point>
       </Placemark>	
	<Placemark>
         <name>IV-V: Gray Wolf</name>
         <description><![CDATA[<img src="http://www.americanwhitewater.org//logo/AW_logo-Vert3Color_xsmall.gif"> <br> <A HREF="http://www.americanwhitewater.org//content/River/detail/id/2121/">AW Page for this reach</A>]]></description>
         <styleUrl>#style_</styleUrl>
         <Point>
           <coordinates>-123.241,47.9171,0</coordinates>
         </Point>
       </Placemark>	
	<Placemark>
         <name>IV+: Grays River</name>
         <description><![CDATA[<img src="http://www.americanwhitewater.org//logo/AW_logo-Vert3Color_xsmall.gif"> <br> <A HREF="http://www.americanwhitewater.org//content/River/detail/id/3491/">AW Page for this reach</A>]]></description>
         <styleUrl>#style_med</styleUrl>
         <Point>
           <coordinates>-123.488,46.3875,0</coordinates>
         </Point>
       </Placemark>	
	<Placemark>
         <name>III-IV: Green River (Toutle Drainage)</name>
         <description><![CDATA[<img src="http://www.americanwhitewater.org//logo/AW_logo-Vert3Color_xsmall.gif"> <br> <A HREF="http://www.americanwhitewater.org//content/River/detail/id/2122/">AW Page for this reach</A>]]></description>
         <styleUrl>#style_</styleUrl>
         <Point>
           <coordinates>-122.352,46.3893,0</coordinates>
         </Point>
       </Placemark>	
	<Placemark>
         <name>II+(III): Green</name>
         <description><![CDATA[<img src="http://www.americanwhitewater.org//logo/AW_logo-Vert3Color_xsmall.gif"> <br> <A HREF="http://www.americanwhitewater.org//content/River/detail/id/3114/">AW Page for this reach</A>]]></description>
         <styleUrl>#style_med</styleUrl>
         <Point>
           <coordinates>-121.851,47.3061,0</coordinates>
         </Point>
       </Placemark>	
	<Placemark>
         <name>III-IV: Green</name>
         <description><![CDATA[<img src="http://www.americanwhitewater.org//logo/AW_logo-Vert3Color_xsmall.gif"> <br> <A HREF="http://www.americanwhitewater.org//content/River/detail/id/2123/">AW Page for this reach</A>]]></description>
         <styleUrl>#style_med</styleUrl>
         <Point>
           <coordinates>-121.907,47.3225,0</coordinates>
         </Point>
       </Placemark>	
	<Placemark>
         <name>II: Green</name>
         <description><![CDATA[<img src="http://www.americanwhitewater.org//logo/AW_logo-Vert3Color_xsmall.gif"> <br> <A HREF="http://www.americanwhitewater.org//content/River/detail/id/2124/">AW Page for this reach</A>]]></description>
         <styleUrl>#style_high</styleUrl>
         <Point>
           <coordinates>-122.124,47.2792,0</coordinates>
         </Point>
       </Placemark>	
	<Placemark>
         <name>II(IV): Greenwater</name>
         <description><![CDATA[<img src="http://www.americanwhitewater.org//logo/AW_logo-Vert3Color_xsmall.gif"> <br> <A HREF="http://www.americanwhitewater.org//content/River/detail/id/2125/">AW Page for this reach</A>]]></description>
         <styleUrl>#style_low</styleUrl>
         <Point>
           <coordinates>-121.524,47.1256,0</coordinates>
         </Point>
       </Placemark>	
	<Placemark>
         <name>V+: Hamma Hamma</name>
         <description><![CDATA[<img src="http://www.americanwhitewater.org//logo/AW_logo-Vert3Color_xsmall.gif"> <br> <A HREF="http://www.americanwhitewater.org//content/River/detail/id/2126/">AW Page for this reach</A>]]></description>
         <styleUrl>#style_</styleUrl>
         <Point>
           <coordinates>-123.224,47.582,0</coordinates>
         </Point>
       </Placemark>	
	<Placemark>
         <name>III-IV: Hamma Hamma</name>
         <description><![CDATA[<img src="http://www.americanwhitewater.org//logo/AW_logo-Vert3Color_xsmall.gif"> <br> <A HREF="http://www.americanwhitewater.org//content/River/detail/id/2127/">AW Page for this reach</A>]]></description>
         <styleUrl>#style_</styleUrl>
         <Point>
           <coordinates>-123.129,47.5946,0</coordinates>
         </Point>
       </Placemark>	
	<Placemark>
         <name>II-III+(IV): Hangman (Latah) Creek</name>
         <description><![CDATA[<img src="http://www.americanwhitewater.org//logo/AW_logo-Vert3Color_xsmall.gif"> <br> <A HREF="http://www.americanwhitewater.org//content/River/detail/id/2128/">AW Page for this reach</A>]]></description>
         <styleUrl>#style_low</styleUrl>
         <Point>
           <coordinates>-117.264,47.3986,0</coordinates>
         </Point>
       </Placemark>	
	<Placemark>
         <name>II+: Hangman (Latah) Creek</name>
         <description><![CDATA[<img src="http://www.americanwhitewater.org//logo/AW_logo-Vert3Color_xsmall.gif"> <br> <A HREF="http://www.americanwhitewater.org//content/River/detail/id/3299/">AW Page for this reach</A>]]></description>
         <styleUrl>#style_low</styleUrl>
         <Point>
           <coordinates>-117.401,47.5874,0</coordinates>
         </Point>
       </Placemark>	
	<Placemark>
         <name>IV-V(V+): Hoffstadt Creek</name>
         <description><![CDATA[<img src="http://www.americanwhitewater.org//logo/AW_logo-Vert3Color_xsmall.gif"> <br> <A HREF="http://www.americanwhitewater.org//content/River/detail/id/3492/">AW Page for this reach</A>]]></description>
         <styleUrl>#style_</styleUrl>
         <Point>
           <coordinates>-122.38,46.3336,0</coordinates>
         </Point>
       </Placemark>	
	<Placemark>
         <name>II-III: Hoh, S. Fork</name>
         <description><![CDATA[<img src="http://www.americanwhitewater.org//logo/AW_logo-Vert3Color_xsmall.gif"> <br> <A HREF="http://www.americanwhitewater.org//content/River/detail/id/2129/">AW Page for this reach</A>]]></description>
         <styleUrl>#style_</styleUrl>
         <Point>
           <coordinates>-123.948,47.7932,0</coordinates>
         </Point>
       </Placemark>	
	<Placemark>
         <name>II: Hoh</name>
         <description><![CDATA[<img src="http://www.americanwhitewater.org//logo/AW_logo-Vert3Color_xsmall.gif"> <br> <A HREF="http://www.americanwhitewater.org//content/River/detail/id/3353/">AW Page for this reach</A>]]></description>
         <styleUrl>#style_med</styleUrl>
         <Point>
           <coordinates>-123.943,47.8574,0</coordinates>
         </Point>
       </Placemark>	
	<Placemark>
         <name>I-II(IV): Hoko</name>
         <description><![CDATA[<img src="http://www.americanwhitewater.org//logo/AW_logo-Vert3Color_xsmall.gif"> <br> <A HREF="http://www.americanwhitewater.org//content/River/detail/id/2130/">AW Page for this reach</A>]]></description>
         <styleUrl>#style_med</styleUrl>
         <Point>
           <coordinates>-124.432,48.1993,0</coordinates>
         </Point>
       </Placemark>	
	<Placemark>
         <name>III: Humptulips, E. Fork</name>
         <description><![CDATA[<img src="http://www.americanwhitewater.org//logo/AW_logo-Vert3Color_xsmall.gif"> <br> <A HREF="http://www.americanwhitewater.org//content/River/detail/id/2131/">AW Page for this reach</A>]]></description>
         <styleUrl>#style_med</styleUrl>
         <Point>
           <coordinates>-123.725,47.3645,0</coordinates>
         </Point>
       </Placemark>	
	<Placemark>
         <name>III: Humptulips, E. Fork</name>
         <description><![CDATA[<img src="http://www.americanwhitewater.org//logo/AW_logo-Vert3Color_xsmall.gif"> <br> <A HREF="http://www.americanwhitewater.org//content/River/detail/id/2132/">AW Page for this reach</A>]]></description>
         <styleUrl>#style_med</styleUrl>
         <Point>
           <coordinates>-123.726,47.3303,0</coordinates>
         </Point>
       </Placemark>	
	<Placemark>
         <name>III: Humptulips, E. Fork</name>
         <description><![CDATA[<img src="http://www.americanwhitewater.org//logo/AW_logo-Vert3Color_xsmall.gif"> <br> <A HREF="http://www.americanwhitewater.org//content/River/detail/id/2133/">AW Page for this reach</A>]]></description>
         <styleUrl>#style_med</styleUrl>
         <Point>
           <coordinates>-123.782,47.2883,0</coordinates>
         </Point>
       </Placemark>	
	<Placemark>
         <name>IV+: Humptulips, W. Fork</name>
         <description><![CDATA[<img src="http://www.americanwhitewater.org//logo/AW_logo-Vert3Color_xsmall.gif"> <br> <A HREF="http://www.americanwhitewater.org//content/River/detail/id/3343/">AW Page for this reach</A>]]></description>
         <styleUrl>#style_med</styleUrl>
         <Point>
           <coordinates>-123.793,47.3789,0</coordinates>
         </Point>
       </Placemark>	
	<Placemark>
         <name>II: Humptulips, W. Fork</name>
         <description><![CDATA[<img src="http://www.americanwhitewater.org//logo/AW_logo-Vert3Color_xsmall.gif"> <br> <A HREF="http://www.americanwhitewater.org//content/River/detail/id/2134/">AW Page for this reach</A>]]></description>
         <styleUrl>#style_med</styleUrl>
         <Point>
           <coordinates>-123.815,47.353,0</coordinates>
         </Point>
       </Placemark>	
	<Placemark>
         <name>II-III(IV): Hyas Creek</name>
         <description><![CDATA[<img src="http://www.americanwhitewater.org//logo/AW_logo-Vert3Color_xsmall.gif"> <br> <A HREF="http://www.americanwhitewater.org//content/River/detail/id/2135/">AW Page for this reach</A>]]></description>
         <styleUrl>#style_</styleUrl>
         <Point>
           <coordinates>-124.244,47.9661,0</coordinates>
         </Point>
       </Placemark>	
	<Placemark>
         <name>II-III+(V): Icicle Creek</name>
         <description><![CDATA[<img src="http://www.americanwhitewater.org//logo/AW_logo-Vert3Color_xsmall.gif"> <br> <A HREF="http://www.americanwhitewater.org//content/River/detail/id/2136/">AW Page for this reach</A>]]></description>
         <styleUrl>#style_low</styleUrl>
         <Point>
           <coordinates>-120.918,47.6075,0</coordinates>
         </Point>
       </Placemark>	
	<Placemark>
         <name>IV-V(V+): Icicle Creek</name>
         <description><![CDATA[<img src="http://www.americanwhitewater.org//logo/AW_logo-Vert3Color_xsmall.gif"> <br> <A HREF="http://www.americanwhitewater.org//content/River/detail/id/2137/">AW Page for this reach</A>]]></description>
         <styleUrl>#style_low</styleUrl>
         <Point>
           <coordinates>-120.843,47.6068,0</coordinates>
         </Point>
       </Placemark>	
	<Placemark>
         <name>IV+: Icicle Creek</name>
         <description><![CDATA[<img src="http://www.americanwhitewater.org//logo/AW_logo-Vert3Color_xsmall.gif"> <br> <A HREF="http://www.americanwhitewater.org//content/River/detail/id/3412/">AW Page for this reach</A>]]></description>
         <styleUrl>#style_low</styleUrl>
         <Point>
           <coordinates>-120.708,47.5437,0</coordinates>
         </Point>
       </Placemark>	
	<Placemark>
         <name>V: Illabot Creek</name>
         <description><![CDATA[<img src="http://www.americanwhitewater.org//logo/AW_logo-Vert3Color_xsmall.gif"> <br> <A HREF="http://www.americanwhitewater.org//content/River/detail/id/3526/">AW Page for this reach</A>]]></description>
         <styleUrl>#style_</styleUrl>
         <Point>
           <coordinates>-121.402,48.4234,0</coordinates>
         </Point>
       </Placemark>	
	<Placemark>
         <name>IV: Ingalls Creek</name>
         <description><![CDATA[<img src="http://www.americanwhitewater.org//logo/AW_logo-Vert3Color_xsmall.gif"> <br> <A HREF="http://www.americanwhitewater.org//content/River/detail/id/3527/">AW Page for this reach</A>]]></description>
         <styleUrl>#style_</styleUrl>
         <Point>
           <coordinates>-120.673,47.4627,0</coordinates>
         </Point>
       </Placemark>	
	<Placemark>
         <name>IV-V: Jackman</name>
         <description><![CDATA[<img src="http://www.americanwhitewater.org//logo/AW_logo-Vert3Color_xsmall.gif"> <br> <A HREF="http://www.americanwhitewater.org//content/River/detail/id/3528/">AW Page for this reach</A>]]></description>
         <styleUrl>#style_</styleUrl>
         <Point>
           <coordinates>-121.605,48.5594,0</coordinates>
         </Point>
       </Placemark>	
	<Placemark>
         <name>V: Jefferson Creek</name>
         <description><![CDATA[<img src="http://www.americanwhitewater.org//logo/AW_logo-Vert3Color_xsmall.gif"> <br> <A HREF="http://www.americanwhitewater.org//content/River/detail/id/4214/">AW Page for this reach</A>]]></description>
         <styleUrl>#style_</styleUrl>
         <Point>
           <coordinates>-123.135,47.5719,0</coordinates>
         </Point>
       </Placemark>	
	<Placemark>
         <name>II: Jim Creek</name>
         <description><![CDATA[<img src="http://www.americanwhitewater.org//logo/AW_logo-Vert3Color_xsmall.gif"> <br> <A HREF="http://www.americanwhitewater.org//content/River/detail/id/3529/">AW Page for this reach</A>]]></description>
         <styleUrl>#style_</styleUrl>
         <Point>
           <coordinates>-122.012,48.2129,0</coordinates>
         </Point>
       </Placemark>	
	<Placemark>
         <name>V: Johnson Creek</name>
         <description><![CDATA[<img src="http://www.americanwhitewater.org//logo/AW_logo-Vert3Color_xsmall.gif"> <br> <A HREF="http://www.americanwhitewater.org//content/River/detail/id/3429/">AW Page for this reach</A>]]></description>
         <styleUrl>#style_</styleUrl>
         <Point>
           <coordinates>-121.622,46.5411,0</coordinates>
         </Point>
       </Placemark>	
	<Placemark>
         <name>II-III(IV): Joseph Creek</name>
         <description><![CDATA[<img src="http://www.americanwhitewater.org//logo/AW_logo-Vert3Color_xsmall.gif"> <br> <A HREF="http://www.americanwhitewater.org//content/River/detail/id/4298/">AW Page for this reach</A>]]></description>
         <styleUrl>#style_</styleUrl>
         <Point>
           <coordinates>-117.171,45.7611,0</coordinates>
         </Point>
       </Placemark>	
	<Placemark>
         <name>III-IV: Kalama</name>
         <description><![CDATA[<img src="http://www.americanwhitewater.org//logo/AW_logo-Vert3Color_xsmall.gif"> <br> <A HREF="http://www.americanwhitewater.org//content/River/detail/id/2139/">AW Page for this reach</A>]]></description>
         <styleUrl>#style_</styleUrl>
         <Point>
           <coordinates>-122.377,46.1058,0</coordinates>
         </Point>
       </Placemark>	
	<Placemark>
         <name>II-IV: Kalama</name>
         <description><![CDATA[<img src="http://www.americanwhitewater.org//logo/AW_logo-Vert3Color_xsmall.gif"> <br> <A HREF="http://www.americanwhitewater.org//content/River/detail/id/2141/">AW Page for this reach</A>]]></description>
         <styleUrl>#style_</styleUrl>
         <Point>
           <coordinates>-122.609,46.0483,0</coordinates>
         </Point>
       </Placemark>	
	<Placemark>
         <name>III-IV: Kalama</name>
         <description><![CDATA[<img src="http://www.americanwhitewater.org//logo/AW_logo-Vert3Color_xsmall.gif"> <br> <A HREF="http://www.americanwhitewater.org//content/River/detail/id/2140/">AW Page for this reach</A>]]></description>
         <styleUrl>#style_</styleUrl>
         <Point>
           <coordinates>-122.732,46.0203,0</coordinates>
         </Point>
       </Placemark>	
	<Placemark>
         <name>II-III: Kettle</name>
         <description><![CDATA[<img src="http://www.americanwhitewater.org//logo/AW_logo-Vert3Color_xsmall.gif"> <br> <A HREF="http://www.americanwhitewater.org//content/River/detail/id/2142/">AW Page for this reach</A>]]></description>
         <styleUrl>#style_</styleUrl>
         <Point>
           <coordinates>-118.202,48.9152,0</coordinates>
         </Point>
       </Placemark>	
	<Placemark>
         <name>III+: Klickitat</name>
         <description><![CDATA[<img src="http://www.americanwhitewater.org//logo/AW_logo-Vert3Color_xsmall.gif"> <br> <A HREF="http://www.americanwhitewater.org//content/River/detail/id/2143/">AW Page for this reach</A>]]></description>
         <styleUrl>#style_med</styleUrl>
         <Point>
           <coordinates>-121.29,46.1261,0</coordinates>
         </Point>
       </Placemark>	
	<Placemark>
         <name>II: Klickitat</name>
         <description><![CDATA[<img src="http://www.americanwhitewater.org//logo/AW_logo-Vert3Color_xsmall.gif"> <br> <A HREF="http://www.americanwhitewater.org//content/River/detail/id/2144/">AW Page for this reach</A>]]></description>
         <styleUrl>#style_med</styleUrl>
         <Point>
           <coordinates>-121.124,45.9859,0</coordinates>
         </Point>
       </Placemark>	
	<Placemark>
         <name>II-III: Klickitat</name>
         <description><![CDATA[<img src="http://www.americanwhitewater.org//logo/AW_logo-Vert3Color_xsmall.gif"> <br> <A HREF="http://www.americanwhitewater.org//content/River/detail/id/2145/">AW Page for this reach</A>]]></description>
         <styleUrl>#style_med</styleUrl>
         <Point>
           <coordinates>-121.115,45.8223,0</coordinates>
         </Point>
       </Placemark>	
	<Placemark>
         <name>V+: Klickitat</name>
         <description><![CDATA[<img src="http://www.americanwhitewater.org//logo/AW_logo-Vert3Color_xsmall.gif"> <br> <A HREF="http://www.americanwhitewater.org//content/River/detail/id/2146/">AW Page for this reach</A>]]></description>
         <styleUrl>#style_high</styleUrl>
         <Point>
           <coordinates>-121.26,45.7162,0</coordinates>
         </Point>
       </Placemark>	
	<Placemark>
         <name>V+: Lake Creek</name>
         <description><![CDATA[<img src="http://www.americanwhitewater.org//logo/AW_logo-Vert3Color_xsmall.gif"> <br> <A HREF="http://www.americanwhitewater.org//content/River/detail/id/3543/">AW Page for this reach</A>]]></description>
         <styleUrl>#style_</styleUrl>
         <Point>
           <coordinates>-121.053,47.8763,0</coordinates>
         </Point>
       </Placemark>	
	<Placemark>
         <name>I: Lake Washington</name>
         <description><![CDATA[<img src="http://www.americanwhitewater.org//logo/AW_logo-Vert3Color_xsmall.gif"> <br> <A HREF="http://www.americanwhitewater.org//content/River/detail/id/3425/">AW Page for this reach</A>]]></description>
         <styleUrl>#style_</styleUrl>
         <Point>
           <coordinates>-122.299,47.6463,0</coordinates>
         </Point>
       </Placemark>	
	<Placemark>
         <name>IV-V: Lewis, E. Fork</name>
         <description><![CDATA[<img src="http://www.americanwhitewater.org//logo/AW_logo-Vert3Color_xsmall.gif"> <br> <A HREF="http://www.americanwhitewater.org//content/River/detail/id/2149/">AW Page for this reach</A>]]></description>
         <styleUrl>#style_high</styleUrl>
         <Point>
           <coordinates>-122.164,45.8229,0</coordinates>
         </Point>
       </Placemark>	
	<Placemark>
         <name>IV: Lewis, E. Fork</name>
         <description><![CDATA[<img src="http://www.americanwhitewater.org//logo/AW_logo-Vert3Color_xsmall.gif"> <br> <A HREF="http://www.americanwhitewater.org//content/River/detail/id/2147/">AW Page for this reach</A>]]></description>
         <styleUrl>#style_med</styleUrl>
         <Point>
           <coordinates>-122.238,45.8213,0</coordinates>
         </Point>
       </Placemark>	
	<Placemark>
         <name>III-V: Lewis, E. Fork</name>
         <description><![CDATA[<img src="http://www.americanwhitewater.org//logo/AW_logo-Vert3Color_xsmall.gif"> <br> <A HREF="http://www.americanwhitewater.org//content/River/detail/id/2150/">AW Page for this reach</A>]]></description>
         <styleUrl>#style_low</styleUrl>
         <Point>
           <coordinates>-122.368,45.8148,0</coordinates>
         </Point>
       </Placemark>	
	<Placemark>
         <name>III+(V): Lewis, E. Fork</name>
         <description><![CDATA[<img src="http://www.americanwhitewater.org//logo/AW_logo-Vert3Color_xsmall.gif"> <br> <A HREF="http://www.americanwhitewater.org//content/River/detail/id/2148/">AW Page for this reach</A>]]></description>
         <styleUrl>#style_med</styleUrl>
         <Point>
           <coordinates>-122.389,45.8313,0</coordinates>
         </Point>
       </Placemark>	
	<Placemark>
         <name>II: Lewis, E. Fork</name>
         <description><![CDATA[<img src="http://www.americanwhitewater.org//logo/AW_logo-Vert3Color_xsmall.gif"> <br> <A HREF="http://www.americanwhitewater.org//content/River/detail/id/3530/">AW Page for this reach</A>]]></description>
         <styleUrl>#style_high</styleUrl>
         <Point>
           <coordinates>-122.543,45.8123,0</coordinates>
         </Point>
       </Placemark>	
	<Placemark>
         <name>II-III: Lewis, N. Fork</name>
         <description><![CDATA[<img src="http://www.americanwhitewater.org//logo/AW_logo-Vert3Color_xsmall.gif"> <br> <A HREF="http://www.americanwhitewater.org//content/River/detail/id/3531/">AW Page for this reach</A>]]></description>
         <styleUrl>#style_med</styleUrl>
         <Point>
           <coordinates>-121.671,46.2146,0</coordinates>
         </Point>
       </Placemark>	
	<Placemark>
         <name>IV: Lewis, N. Fork</name>
         <description><![CDATA[<img src="http://www.americanwhitewater.org//logo/AW_logo-Vert3Color_xsmall.gif"> <br> <A HREF="http://www.americanwhitewater.org//content/River/detail/id/3495/">AW Page for this reach</A>]]></description>
         <styleUrl>#style_med</styleUrl>
         <Point>
           <coordinates>-121.729,46.1963,0</coordinates>
         </Point>
       </Placemark>	
	<Placemark>
         <name>V+: Lewis, N. Fork</name>
         <description><![CDATA[<img src="http://www.americanwhitewater.org//logo/AW_logo-Vert3Color_xsmall.gif"> <br> <A HREF="http://www.americanwhitewater.org//content/River/detail/id/5711/">AW Page for this reach</A>]]></description>
         <styleUrl>#style_med</styleUrl>
         <Point>
           <coordinates>-121.847,46.1796,0</coordinates>
         </Point>
       </Placemark>	
	<Placemark>
         <name>III-IV: Lewis, N. Fork</name>
         <description><![CDATA[<img src="http://www.americanwhitewater.org//logo/AW_logo-Vert3Color_xsmall.gif"> <br> <A HREF="http://www.americanwhitewater.org//content/River/detail/id/2151/">AW Page for this reach</A>]]></description>
         <styleUrl>#style_high</styleUrl>
         <Point>
           <coordinates>-121.896,46.1443,0</coordinates>
         </Point>
       </Placemark>	
	<Placemark>
         <name>II-III: Lewis, N. Fork</name>
         <description><![CDATA[<img src="http://www.americanwhitewater.org//logo/AW_logo-Vert3Color_xsmall.gif"> <br> <A HREF="http://www.americanwhitewater.org//content/River/detail/id/2152/">AW Page for this reach</A>]]></description>
         <styleUrl>#style_med</styleUrl>
         <Point>
           <coordinates>-121.967,46.0622,0</coordinates>
         </Point>
       </Placemark>	
	<Placemark>
         <name>III-IV(V): Lightning Creek</name>
         <description><![CDATA[<img src="http://www.americanwhitewater.org//logo/AW_logo-Vert3Color_xsmall.gif"> <br> <A HREF="http://www.americanwhitewater.org//content/River/detail/id/5014/">AW Page for this reach</A>]]></description>
         <styleUrl>#style_</styleUrl>
         <Point>
           <coordinates>-120.981,48.9002,0</coordinates>
         </Point>
       </Placemark>	
	<Placemark>
         <name>IV-V: Little  Beaver</name>
         <description><![CDATA[<img src="http://www.americanwhitewater.org//logo/AW_logo-Vert3Color_xsmall.gif"> <br> <A HREF="http://www.americanwhitewater.org//content/River/detail/id/5400/">AW Page for this reach</A>]]></description>
         <styleUrl>#style_</styleUrl>
         <Point>
           <coordinates>-121.131,48.9193,0</coordinates>
         </Point>
       </Placemark>	
	<Placemark>
         <name>IV-V: Little Klickitat</name>
         <description><![CDATA[<img src="http://www.americanwhitewater.org//logo/AW_logo-Vert3Color_xsmall.gif"> <br> <A HREF="http://www.americanwhitewater.org//content/River/detail/id/2153/">AW Page for this reach</A>]]></description>
         <styleUrl>#style_low</styleUrl>
         <Point>
           <coordinates>-120.924,45.8093,0</coordinates>
         </Point>
       </Placemark>	
	<Placemark>
         <name>II-III+(IV): Little Naches</name>
         <description><![CDATA[<img src="http://www.americanwhitewater.org//logo/AW_logo-Vert3Color_xsmall.gif"> <br> <A HREF="http://www.americanwhitewater.org//content/River/detail/id/2154/">AW Page for this reach</A>]]></description>
         <styleUrl>#style_</styleUrl>
         <Point>
           <coordinates>-121.218,47.0636,0</coordinates>
         </Point>
       </Placemark>	
	<Placemark>
         <name>IV+: Little Nisqually</name>
         <description><![CDATA[<img src="http://www.americanwhitewater.org//logo/AW_logo-Vert3Color_xsmall.gif"> <br> <A HREF="http://www.americanwhitewater.org//content/River/detail/id/3497/">AW Page for this reach</A>]]></description>
         <styleUrl>#style_</styleUrl>
         <Point>
           <coordinates>-122.319,46.7031,0</coordinates>
         </Point>
       </Placemark>	
	<Placemark>
         <name>II-III(IV): Little Washougal</name>
         <description><![CDATA[<img src="http://www.americanwhitewater.org//logo/AW_logo-Vert3Color_xsmall.gif"> <br> <A HREF="http://www.americanwhitewater.org//content/River/detail/id/3513/">AW Page for this reach</A>]]></description>
         <styleUrl>#style_</styleUrl>
         <Point>
           <coordinates>-122.327,45.6765,0</coordinates>
         </Point>
       </Placemark>	
	<Placemark>
         <name>IV(V): Little Wenatchee</name>
         <description><![CDATA[<img src="http://www.americanwhitewater.org//logo/AW_logo-Vert3Color_xsmall.gif"> <br> <A HREF="http://www.americanwhitewater.org//content/River/detail/id/2155/">AW Page for this reach</A>]]></description>
         <styleUrl>#style_</styleUrl>
         <Point>
           <coordinates>-121.075,47.8958,0</coordinates>
         </Point>
       </Placemark>	
	<Placemark>
         <name>IV-V+: Little White Salmon</name>
         <description><![CDATA[<img src="http://www.americanwhitewater.org//logo/AW_logo-Vert3Color_xsmall.gif"> <br> <A HREF="http://www.americanwhitewater.org//content/River/detail/id/2156/">AW Page for this reach</A>]]></description>
         <styleUrl>#style_</styleUrl>
         <Point>
           <coordinates>-121.634,45.785,0</coordinates>
         </Point>
       </Placemark>	
	<Placemark>
         <name>IV-V: Lost</name>
         <description><![CDATA[<img src="http://www.americanwhitewater.org//logo/AW_logo-Vert3Color_xsmall.gif"> <br> <A HREF="http://www.americanwhitewater.org//content/River/detail/id/2157/">AW Page for this reach</A>]]></description>
         <styleUrl>#style_low</styleUrl>
         <Point>
           <coordinates>-120.395,48.7812,0</coordinates>
         </Point>
       </Placemark>	
	<Placemark>
         <name>IV-V: Lyre</name>
         <description><![CDATA[<img src="http://www.americanwhitewater.org//logo/AW_logo-Vert3Color_xsmall.gif"> <br> <A HREF="http://www.americanwhitewater.org//content/River/detail/id/2158/">AW Page for this reach</A>]]></description>
         <styleUrl>#style_</styleUrl>
         <Point>
           <coordinates>-123.823,48.1146,0</coordinates>
         </Point>
       </Placemark>	
	<Placemark>
         <name>III-IV: Mad</name>
         <description><![CDATA[<img src="http://www.americanwhitewater.org//logo/AW_logo-Vert3Color_xsmall.gif"> <br> <A HREF="http://www.americanwhitewater.org//content/River/detail/id/2159/">AW Page for this reach</A>]]></description>
         <styleUrl>#style_</styleUrl>
         <Point>
           <coordinates>-120.424,47.7577,0</coordinates>
         </Point>
       </Placemark>	
	<Placemark>
         <name>V+: Martin Creek</name>
         <description><![CDATA[<img src="http://www.americanwhitewater.org//logo/AW_logo-Vert3Color_xsmall.gif"> <br> <A HREF="http://www.americanwhitewater.org//content/River/detail/id/3167/">AW Page for this reach</A>]]></description>
         <styleUrl>#style_</styleUrl>
         <Point>
           <coordinates>-121.189,47.7469,0</coordinates>
         </Point>
       </Placemark>	
	<Placemark>
         <name>II-IV: Mashel</name>
         <description><![CDATA[<img src="http://www.americanwhitewater.org//logo/AW_logo-Vert3Color_xsmall.gif"> <br> <A HREF="http://www.americanwhitewater.org//content/River/detail/id/2160/">AW Page for this reach</A>]]></description>
         <styleUrl>#style_</styleUrl>
         <Point>
           <coordinates>-122.243,46.8673,0</coordinates>
         </Point>
       </Placemark>	
	<Placemark>
         <name>III-IV: Matheny Creek</name>
         <description><![CDATA[<img src="http://www.americanwhitewater.org//logo/AW_logo-Vert3Color_xsmall.gif"> <br> <A HREF="http://www.americanwhitewater.org//content/River/detail/id/2163/">AW Page for this reach</A>]]></description>
         <styleUrl>#style_</styleUrl>
         <Point>
           <coordinates>-124.038,47.5712,0</coordinates>
         </Point>
       </Placemark>	
	<Placemark>
         <name>IV+: Matheny Creek</name>
         <description><![CDATA[<img src="http://www.americanwhitewater.org//logo/AW_logo-Vert3Color_xsmall.gif"> <br> <A HREF="http://www.americanwhitewater.org//content/River/detail/id/2161/">AW Page for this reach</A>]]></description>
         <styleUrl>#style_</styleUrl>
         <Point>
           <coordinates>-123.887,47.5606,0</coordinates>
         </Point>
       </Placemark>	
	<Placemark>
         <name>V: McCoy Creek</name>
         <description><![CDATA[<img src="http://www.americanwhitewater.org//logo/AW_logo-Vert3Color_xsmall.gif"> <br> <A HREF="http://www.americanwhitewater.org//content/River/detail/id/3202/">AW Page for this reach</A>]]></description>
         <styleUrl>#style_</styleUrl>
         <Point>
           <coordinates>-121.795,46.308,0</coordinates>
         </Point>
       </Placemark>	
	<Placemark>
         <name>II(III): Methow</name>
         <description><![CDATA[<img src="http://www.americanwhitewater.org//logo/AW_logo-Vert3Color_xsmall.gif"> <br> <A HREF="http://www.americanwhitewater.org//content/River/detail/id/3532/">AW Page for this reach</A>]]></description>
         <styleUrl>#style_med</styleUrl>
         <Point>
           <coordinates>-120.553,48.6516,0</coordinates>
         </Point>
       </Placemark>	
	<Placemark>
         <name>II: Methow</name>
         <description><![CDATA[<img src="http://www.americanwhitewater.org//logo/AW_logo-Vert3Color_xsmall.gif"> <br> <A HREF="http://www.americanwhitewater.org//content/River/detail/id/2164/">AW Page for this reach</A>]]></description>
         <styleUrl>#style_med</styleUrl>
         <Point>
           <coordinates>-120.118,48.2463,0</coordinates>
         </Point>
       </Placemark>	
	<Placemark>
         <name>III: Methow</name>
         <description><![CDATA[<img src="http://www.americanwhitewater.org//logo/AW_logo-Vert3Color_xsmall.gif"> <br> <A HREF="http://www.americanwhitewater.org//content/River/detail/id/2165/">AW Page for this reach</A>]]></description>
         <styleUrl>#style_med</styleUrl>
         <Point>
           <coordinates>-120.057,48.1508,0</coordinates>
         </Point>
       </Placemark>	
	<Placemark>
         <name>V: Miller, East Fork</name>
         <description><![CDATA[<img src="http://www.americanwhitewater.org//logo/AW_logo-Vert3Color_xsmall.gif"> <br> <A HREF="http://www.americanwhitewater.org//content/River/detail/id/3584/">AW Page for this reach</A>]]></description>
         <styleUrl>#style_</styleUrl>
         <Point>
           <coordinates>-121.378,47.6344,0</coordinates>
         </Point>
       </Placemark>	
	<Placemark>
         <name>V+: Miller, West Fork</name>
         <description><![CDATA[<img src="http://www.americanwhitewater.org//logo/AW_logo-Vert3Color_xsmall.gif"> <br> <A HREF="http://www.americanwhitewater.org//content/River/detail/id/3151/">AW Page for this reach</A>]]></description>
         <styleUrl>#style_low</styleUrl>
         <Point>
           <coordinates>-121.411,47.6596,0</coordinates>
         </Point>
       </Placemark>	
	<Placemark>
         <name>IV: Miller</name>
         <description><![CDATA[<img src="http://www.americanwhitewater.org//logo/AW_logo-Vert3Color_xsmall.gif"> <br> <A HREF="http://www.americanwhitewater.org//content/River/detail/id/2166/">AW Page for this reach</A>]]></description>
         <styleUrl>#style_med</styleUrl>
         <Point>
           <coordinates>-121.379,47.6585,0</coordinates>
         </Point>
       </Placemark>	
	<Placemark>
         <name>IV(V): Mineral Creek, N. Fork</name>
         <description><![CDATA[<img src="http://www.americanwhitewater.org//logo/AW_logo-Vert3Color_xsmall.gif"> <br> <A HREF="http://www.americanwhitewater.org//content/River/detail/id/3501/">AW Page for this reach</A>]]></description>
         <styleUrl>#style_med</styleUrl>
         <Point>
           <coordinates>-122.068,46.6832,0</coordinates>
         </Point>
       </Placemark>	
	<Placemark>
         <name>II: Mineral Creek</name>
         <description><![CDATA[<img src="http://www.americanwhitewater.org//logo/AW_logo-Vert3Color_xsmall.gif"> <br> <A HREF="http://www.americanwhitewater.org//content/River/detail/id/3533/">AW Page for this reach</A>]]></description>
         <styleUrl>#style_med</styleUrl>
         <Point>
           <coordinates>-122.155,46.7096,0</coordinates>
         </Point>
       </Placemark>	
	<Placemark>
         <name>IV-V: Money Creek</name>
         <description><![CDATA[<img src="http://www.americanwhitewater.org//logo/AW_logo-Vert3Color_xsmall.gif"> <br> <A HREF="http://www.americanwhitewater.org//content/River/detail/id/3152/">AW Page for this reach</A>]]></description>
         <styleUrl>#style_low</styleUrl>
         <Point>
           <coordinates>-121.466,47.7004,0</coordinates>
         </Point>
       </Placemark>	
	<Placemark>
         <name>II-III(IV): Muddy</name>
         <description><![CDATA[<img src="http://www.americanwhitewater.org//logo/AW_logo-Vert3Color_xsmall.gif"> <br> <A HREF="http://www.americanwhitewater.org//content/River/detail/id/2167/">AW Page for this reach</A>]]></description>
         <styleUrl>#style_high</styleUrl>
         <Point>
           <coordinates>-122.028,46.1478,0</coordinates>
         </Point>
       </Placemark>	
	<Placemark>
         <name>II-III: Naches</name>
         <description><![CDATA[<img src="http://www.americanwhitewater.org//logo/AW_logo-Vert3Color_xsmall.gif"> <br> <A HREF="http://www.americanwhitewater.org//content/River/detail/id/2168/">AW Page for this reach</A>]]></description>
         <styleUrl>#style_med</styleUrl>
         <Point>
           <coordinates>-121.096,46.9733,0</coordinates>
         </Point>
       </Placemark>	
	<Placemark>
         <name>III-IV(V+): Naselle, N. Fork</name>
         <description><![CDATA[<img src="http://www.americanwhitewater.org//logo/AW_logo-Vert3Color_xsmall.gif"> <br> <A HREF="http://www.americanwhitewater.org//content/River/detail/id/3498/">AW Page for this reach</A>]]></description>
         <styleUrl>#style_</styleUrl>
         <Point>
           <coordinates>-123.69,46.4635,0</coordinates>
         </Point>
       </Placemark>	
	<Placemark>
         <name>IV-V: Nason</name>
         <description><![CDATA[<img src="http://www.americanwhitewater.org//logo/AW_logo-Vert3Color_xsmall.gif"> <br> <A HREF="http://www.americanwhitewater.org//content/River/detail/id/3431/">AW Page for this reach</A>]]></description>
         <styleUrl>#style_</styleUrl>
         <Point>
           <coordinates>-121,47.7715,0</coordinates>
         </Point>
       </Placemark>	
	<Placemark>
         <name>II-III: Nason</name>
         <description><![CDATA[<img src="http://www.americanwhitewater.org//logo/AW_logo-Vert3Color_xsmall.gif"> <br> <A HREF="http://www.americanwhitewater.org//content/River/detail/id/3432/">AW Page for this reach</A>]]></description>
         <styleUrl>#style_</styleUrl>
         <Point>
           <coordinates>-120.803,47.7691,0</coordinates>
         </Point>
       </Placemark>	
	<Placemark>
         <name>V: Nisqually</name>
         <description><![CDATA[<img src="http://www.americanwhitewater.org//logo/AW_logo-Vert3Color_xsmall.gif"> <br> <A HREF="http://www.americanwhitewater.org//content/River/detail/id/3117/">AW Page for this reach</A>]]></description>
         <styleUrl>#style_low</styleUrl>
         <Point>
           <coordinates>-122.303,46.8236,0</coordinates>
         </Point>
       </Placemark>	
	<Placemark>
         <name>II: Nisqually</name>
         <description><![CDATA[<img src="http://www.americanwhitewater.org//logo/AW_logo-Vert3Color_xsmall.gif"> <br> <A HREF="http://www.americanwhitewater.org//content/River/detail/id/2169/">AW Page for this reach</A>]]></description>
         <styleUrl>#style_high</styleUrl>
         <Point>
           <coordinates>-122.331,46.8472,0</coordinates>
         </Point>
       </Placemark>	
	<Placemark>
         <name>II-III: Nisqually</name>
         <description><![CDATA[<img src="http://www.americanwhitewater.org//logo/AW_logo-Vert3Color_xsmall.gif"> <br> <A HREF="http://www.americanwhitewater.org//content/River/detail/id/2170/">AW Page for this reach</A>]]></description>
         <styleUrl>#style_med</styleUrl>
         <Point>
           <coordinates>-122.559,46.9331,0</coordinates>
         </Point>
       </Placemark>	
	<Placemark>
         <name>V: Nooksack, Middle Fork</name>
         <description><![CDATA[<img src="http://www.americanwhitewater.org//logo/AW_logo-Vert3Color_xsmall.gif"> <br> <A HREF="http://www.americanwhitewater.org//content/River/detail/id/3116/">AW Page for this reach</A>]]></description>
         <styleUrl>#style_med</styleUrl>
         <Point>
           <coordinates>-122.04,48.7667,0</coordinates>
         </Point>
       </Placemark>	
	<Placemark>
         <name>V: Nooksack, N. Fork</name>
         <description><![CDATA[<img src="http://www.americanwhitewater.org//logo/AW_logo-Vert3Color_xsmall.gif"> <br> <A HREF="http://www.americanwhitewater.org//content/River/detail/id/2173/">AW Page for this reach</A>]]></description>
         <styleUrl>#style_med</styleUrl>
         <Point>
           <coordinates>-121.733,48.9027,0</coordinates>
         </Point>
       </Placemark>	
	<Placemark>
         <name>IV+: Nooksack, N. Fork</name>
         <description><![CDATA[<img src="http://www.americanwhitewater.org//logo/AW_logo-Vert3Color_xsmall.gif"> <br> <A HREF="http://www.americanwhitewater.org//content/River/detail/id/2172/">AW Page for this reach</A>]]></description>
         <styleUrl>#style_low</styleUrl>
         <Point>
           <coordinates>-121.885,48.9032,0</coordinates>
         </Point>
       </Placemark>	
	<Placemark>
         <name>II-III: Nooksack, N. Fork</name>
         <description><![CDATA[<img src="http://www.americanwhitewater.org//logo/AW_logo-Vert3Color_xsmall.gif"> <br> <A HREF="http://www.americanwhitewater.org//content/River/detail/id/2171/">AW Page for this reach</A>]]></description>
         <styleUrl>#style_low</styleUrl>
         <Point>
           <coordinates>-121.912,48.9019,0</coordinates>
         </Point>
       </Placemark>	
	<Placemark>
         <name>II: Nooksack, N. Fork</name>
         <description><![CDATA[<img src="http://www.americanwhitewater.org//logo/AW_logo-Vert3Color_xsmall.gif"> <br> <A HREF="http://www.americanwhitewater.org//content/River/detail/id/10690/">AW Page for this reach</A>]]></description>
         <styleUrl>#style_med</styleUrl>
         <Point>
           <coordinates>-122.055,48.921,0</coordinates>
         </Point>
       </Placemark>	
	<Placemark>
         <name>II-III: Nooksack, S. Fork</name>
         <description><![CDATA[<img src="http://www.americanwhitewater.org//logo/AW_logo-Vert3Color_xsmall.gif"> <br> <A HREF="http://www.americanwhitewater.org//content/River/detail/id/2174/">AW Page for this reach</A>]]></description>
         <styleUrl>#style_</styleUrl>
         <Point>
           <coordinates>-122.012,48.5988,0</coordinates>
         </Point>
       </Placemark>	
	<Placemark>
         <name>V: Ohanapecosh</name>
         <description><![CDATA[<img src="http://www.americanwhitewater.org//logo/AW_logo-Vert3Color_xsmall.gif"> <br> <A HREF="http://www.americanwhitewater.org//content/River/detail/id/2175/">AW Page for this reach</A>]]></description>
         <styleUrl>#style_high</styleUrl>
         <Point>
           <coordinates>-121.567,46.737,0</coordinates>
         </Point>
       </Placemark>	
	<Placemark>
         <name>II+: Olequa Creek</name>
         <description><![CDATA[<img src="http://www.americanwhitewater.org//logo/AW_logo-Vert3Color_xsmall.gif"> <br> <A HREF="http://www.americanwhitewater.org//content/River/detail/id/3500/">AW Page for this reach</A>]]></description>
         <styleUrl>#style_</styleUrl>
         <Point>
           <coordinates>-122.967,46.4153,0</coordinates>
         </Point>
       </Placemark>	
	<Placemark>
         <name>III+(V): Palouse River</name>
         <description><![CDATA[<img src="http://www.americanwhitewater.org//logo/AW_logo-Vert3Color_xsmall.gif"> <br> <A HREF="http://www.americanwhitewater.org//content/River/detail/id/3503/">AW Page for this reach</A>]]></description>
         <styleUrl>#style_med</styleUrl>
         <Point>
           <coordinates>-118.202,46.7438,0</coordinates>
         </Point>
       </Placemark>	
	<Placemark>
         <name>II: Palouse River</name>
         <description><![CDATA[<img src="http://www.americanwhitewater.org//logo/AW_logo-Vert3Color_xsmall.gif"> <br> <A HREF="http://www.americanwhitewater.org//content/River/detail/id/3504/">AW Page for this reach</A>]]></description>
         <styleUrl>#style_med</styleUrl>
         <Point>
           <coordinates>-118.228,46.661,0</coordinates>
         </Point>
       </Placemark>	
	<Placemark>
         <name>IV+: Panther Creek</name>
         <description><![CDATA[<img src="http://www.americanwhitewater.org//logo/AW_logo-Vert3Color_xsmall.gif"> <br> <A HREF="http://www.americanwhitewater.org//content/River/detail/id/3203/">AW Page for this reach</A>]]></description>
         <styleUrl>#style_</styleUrl>
         <Point>
           <coordinates>-121.849,45.7715,0</coordinates>
         </Point>
       </Placemark>	
	<Placemark>
         <name>III-IV: Peshastin Creek</name>
         <description><![CDATA[<img src="http://www.americanwhitewater.org//logo/AW_logo-Vert3Color_xsmall.gif"> <br> <A HREF="http://www.americanwhitewater.org//content/River/detail/id/2176/">AW Page for this reach</A>]]></description>
         <styleUrl>#style_</styleUrl>
         <Point>
           <coordinates>-120.661,47.4633,0</coordinates>
         </Point>
       </Placemark>	
	<Placemark>
         <name>IV: Pilchuck Creek</name>
         <description><![CDATA[<img src="http://www.americanwhitewater.org//logo/AW_logo-Vert3Color_xsmall.gif"> <br> <A HREF="http://www.americanwhitewater.org//content/River/detail/id/2177/">AW Page for this reach</A>]]></description>
         <styleUrl>#style_</styleUrl>
         <Point>
           <coordinates>-122.056,48.3412,0</coordinates>
         </Point>
       </Placemark>	
	<Placemark>
         <name>III-IV(V): Pilchuck Creek</name>
         <description><![CDATA[<img src="http://www.americanwhitewater.org//logo/AW_logo-Vert3Color_xsmall.gif"> <br> <A HREF="http://www.americanwhitewater.org//content/River/detail/id/2178/">AW Page for this reach</A>]]></description>
         <styleUrl>#style_</styleUrl>
         <Point>
           <coordinates>-122.142,48.3203,0</coordinates>
         </Point>
       </Placemark>	
	<Placemark>
         <name>II+: Pilchuck Creek</name>
         <description><![CDATA[<img src="http://www.americanwhitewater.org//logo/AW_logo-Vert3Color_xsmall.gif"> <br> <A HREF="http://www.americanwhitewater.org//content/River/detail/id/2179/">AW Page for this reach</A>]]></description>
         <styleUrl>#style_</styleUrl>
         <Point>
           <coordinates>-122.166,48.2653,0</coordinates>
         </Point>
       </Placemark>	
	<Placemark>
         <name>III+(IV): Pilchuck River</name>
         <description><![CDATA[<img src="http://www.americanwhitewater.org//logo/AW_logo-Vert3Color_xsmall.gif"> <br> <A HREF="http://www.americanwhitewater.org//content/River/detail/id/2180/">AW Page for this reach</A>]]></description>
         <styleUrl>#style_low</styleUrl>
         <Point>
           <coordinates>-121.816,48.0232,0</coordinates>
         </Point>
       </Placemark>	
	<Placemark>
         <name>IV: Pratt</name>
         <description><![CDATA[<img src="http://www.americanwhitewater.org//logo/AW_logo-Vert3Color_xsmall.gif"> <br> <A HREF="http://www.americanwhitewater.org//content/River/detail/id/3408/">AW Page for this reach</A>]]></description>
         <styleUrl>#style_low</styleUrl>
         <Point>
           <coordinates>-121.532,47.4597,0</coordinates>
         </Point>
       </Placemark>	
	<Placemark>
         <name>V: Puyallup</name>
         <description><![CDATA[<img src="http://www.americanwhitewater.org//logo/AW_logo-Vert3Color_xsmall.gif"> <br> <A HREF="http://www.americanwhitewater.org//content/River/detail/id/3881/">AW Page for this reach</A>]]></description>
         <styleUrl>#style_med</styleUrl>
         <Point>
           <coordinates>-122.053,46.9187,0</coordinates>
         </Point>
       </Placemark>	
	<Placemark>
         <name>II: Puyallup</name>
         <description><![CDATA[<img src="http://www.americanwhitewater.org//logo/AW_logo-Vert3Color_xsmall.gif"> <br> <A HREF="http://www.americanwhitewater.org//content/River/detail/id/2181/">AW Page for this reach</A>]]></description>
         <styleUrl>#style_med</styleUrl>
         <Point>
           <coordinates>-122.206,47.0564,0</coordinates>
         </Point>
       </Placemark>	
	<Placemark>
         <name>I-II: Puyallup</name>
         <description><![CDATA[<img src="http://www.americanwhitewater.org//logo/AW_logo-Vert3Color_xsmall.gif"> <br> <A HREF="http://www.americanwhitewater.org//content/River/detail/id/3069/">AW Page for this reach</A>]]></description>
         <styleUrl>#style_high</styleUrl>
         <Point>
           <coordinates>-122.234,47.1408,0</coordinates>
         </Point>
       </Placemark>	
	<Placemark>
         <name>IV-V+: Quartz Creek</name>
         <description><![CDATA[<img src="http://www.americanwhitewater.org//logo/AW_logo-Vert3Color_xsmall.gif"> <br> <A HREF="http://www.americanwhitewater.org//content/River/detail/id/3638/">AW Page for this reach</A>]]></description>
         <styleUrl>#style_</styleUrl>
         <Point>
           <coordinates>-121.781,46.219,0</coordinates>
         </Point>
       </Placemark>	
	<Placemark>
         <name>II: Queets</name>
         <description><![CDATA[<img src="http://www.americanwhitewater.org//logo/AW_logo-Vert3Color_xsmall.gif"> <br> <A HREF="http://www.americanwhitewater.org//content/River/detail/id/3288/">AW Page for this reach</A>]]></description>
         <styleUrl>#style_med</styleUrl>
         <Point>
           <coordinates>-124.016,47.6275,0</coordinates>
         </Point>
       </Placemark>	
	<Placemark>
         <name>V: Quinault, North Fork</name>
         <description><![CDATA[<img src="http://www.americanwhitewater.org//logo/AW_logo-Vert3Color_xsmall.gif"> <br> <A HREF="http://www.americanwhitewater.org//content/River/detail/id/3578/">AW Page for this reach</A>]]></description>
         <styleUrl>#style_</styleUrl>
         <Point>
           <coordinates>-123.6,47.676,0</coordinates>
         </Point>
       </Placemark>	
	<Placemark>
         <name>IV-V: Quinault</name>
         <description><![CDATA[<img src="http://www.americanwhitewater.org//logo/AW_logo-Vert3Color_xsmall.gif"> <br> <A HREF="http://www.americanwhitewater.org//content/River/detail/id/2183/">AW Page for this reach</A>]]></description>
         <styleUrl>#style_</styleUrl>
         <Point>
           <coordinates>-123.534,47.598,0</coordinates>
         </Point>
       </Placemark>	
	<Placemark>
         <name>II: Quinault</name>
         <description><![CDATA[<img src="http://www.americanwhitewater.org//logo/AW_logo-Vert3Color_xsmall.gif"> <br> <A HREF="http://www.americanwhitewater.org//content/River/detail/id/2182/">AW Page for this reach</A>]]></description>
         <styleUrl>#style_med</styleUrl>
         <Point>
           <coordinates>-123.679,47.5344,0</coordinates>
         </Point>
       </Placemark>	
	<Placemark>
         <name>V+: Racehorse Creek</name>
         <description><![CDATA[<img src="http://www.americanwhitewater.org//logo/AW_logo-Vert3Color_xsmall.gif"> <br> <A HREF="http://www.americanwhitewater.org//content/River/detail/id/3914/">AW Page for this reach</A>]]></description>
         <styleUrl>#style_</styleUrl>
         <Point>
           <coordinates>-122.048,48.8716,0</coordinates>
         </Point>
       </Placemark>	
	<Placemark>
         <name>III+: Raging</name>
         <description><![CDATA[<img src="http://www.americanwhitewater.org//logo/AW_logo-Vert3Color_xsmall.gif"> <br> <A HREF="http://www.americanwhitewater.org//content/River/detail/id/4502/">AW Page for this reach</A>]]></description>
         <styleUrl>#style_low</styleUrl>
         <Point>
           <coordinates>-121.888,47.4863,0</coordinates>
         </Point>
       </Placemark>	
	<Placemark>
         <name>III+: Raging</name>
         <description><![CDATA[<img src="http://www.americanwhitewater.org//logo/AW_logo-Vert3Color_xsmall.gif"> <br> <A HREF="http://www.americanwhitewater.org//content/River/detail/id/2184/">AW Page for this reach</A>]]></description>
         <styleUrl>#style_low</styleUrl>
         <Point>
           <coordinates>-121.924,47.523,0</coordinates>
         </Point>
       </Placemark>	
	<Placemark>
         <name>IV: Rapid</name>
         <description><![CDATA[<img src="http://www.americanwhitewater.org//logo/AW_logo-Vert3Color_xsmall.gif"> <br> <A HREF="http://www.americanwhitewater.org//content/River/detail/id/2185/">AW Page for this reach</A>]]></description>
         <styleUrl>#style_low</styleUrl>
         <Point>
           <coordinates>-121.241,47.8186,0</coordinates>
         </Point>
       </Placemark>	
	<Placemark>
         <name>III: Rattlesnake Creek (Naches trib.)</name>
         <description><![CDATA[<img src="http://www.americanwhitewater.org//logo/AW_logo-Vert3Color_xsmall.gif"> <br> <A HREF="http://www.americanwhitewater.org//content/River/detail/id/2186/">AW Page for this reach</A>]]></description>
         <styleUrl>#style_</styleUrl>
         <Point>
           <coordinates>-121.068,46.8093,0</coordinates>
         </Point>
       </Placemark>	
	<Placemark>
         <name>IV(V): Rattlesnake Creek</name>
         <description><![CDATA[<img src="http://www.americanwhitewater.org//logo/AW_logo-Vert3Color_xsmall.gif"> <br> <A HREF="http://www.americanwhitewater.org//content/River/detail/id/3534/">AW Page for this reach</A>]]></description>
         <styleUrl>#style_</styleUrl>
         <Point>
           <coordinates>-121.43,45.8326,0</coordinates>
         </Point>
       </Placemark>